[{"id":41,"name":"Abbotside","county":"Gloucestershire","country":"England","grid_reference":"ST687906","easting":368783,"northing":190617,"lat":51.61351,"lng":-2.45223,"elevation":66,"postcode_sector":"GL12 8","local_government_area":"South Gloucestershire","nuts_region":"South West","type":"Locality","formatted_address":"Cromhall, Wotton-under-Edge GL12 8AW, UK"},{"id":46,"name":"Abbotsmead","county":"Cumbria","country":"England","grid_reference":"SD215695","easting":321568,"northing":469564,"lat":54.11594,"lng":-3.20135,"elevation":22,"postcode_sector":"LA13 0","local_government_area":"Barrow-in-Furness District","nuts_region":"North West","type":"Suburban Area","formatted_address":"Cloisters Ave, Barrow-in-Furness LA13 0BB, UK"},{"id":51,"name":"Abbot's Salford","county":"Warwickshire","country":"England","grid_reference":"SP068502","easting":406865,"northing":250286,"lat":52.15082,"lng":-1.90108,"elevation":34,"postcode_sector":"WR11 8","local_government_area":"Stratford-on-Avon District","nuts_region":"West Midlands","type":"Village","formatted_address":"Abbot's Salford, Evesham WR11 8UT, UK"},{"id":112,"name":"Abergavenny / Y Fenni","county":"Gwent","country":"Wales","grid_reference":"SO299141","easting":329906,"northing":214193,"lat":51.82194,"lng":-3.01838,"elevation":65,"postcode_sector":"NP7 5","local_government_area":"Monmouthshire / Sir Fynwy","nuts_region":"Wales","type":"Town","formatted_address":"Abergavenny NP7 5EG, UK"},{"id":146,"name":"Aberthin","county":"South Glamorgan","country":"Wales","grid_reference":"ST010753","easting":301022,"northing":175300,"lat":51.46798,"lng":-3.42632,"elevation":46,"postcode_sector":"CF71 7","local_government_area":"The Vale of Glamorgan / Bro Morgannwg","nuts_region":"Wales","type":"Village","formatted_address":"The Orchard, Aberthin, Cowbridge CF71 7HU, UK"},{"id":31,"name":"Abbey Village","county":"Lancashire","country":"England","grid_reference":"SD640227","easting":364054,"northing":422764,"lat":53.70007,"lng":-2.54594,"elevation":161,"postcode_sector":"PR6 8","local_government_area":"Chorley District","nuts_region":"North West","type":"Village","formatted_address":"Sunny View, Abbey Village, Chorley PR6 8DF, UK"},{"id":26,"name":"Abbey Meads","county":"Wiltshire","country":"England","grid_reference":"SU141891","easting":414197,"northing":189131,"lat":51.60084,"lng":-1.79642,"elevation":107,"postcode_sector":"SN25 4","local_government_area":"Swindon","nuts_region":"South West","type":"Suburban Area","formatted_address":"Stenbury Cl, Swindon SN25 4FZ, UK"},{"id":49,"name":"Abbots Morton","county":"Worcestershire","country":"England","grid_reference":"SP028550","easting":402806,"northing":255084,"lat":52.19399,"lng":-1.96037,"elevation":67,"postcode_sector":"WR7 4","local_government_area":"Wychavon District","nuts_region":"West Midlands","type":"Village","formatted_address":"Abbots Morton, Worcester WR7 4NA, UK"},{"id":20,"name":"Abbey Green","county":"Shropshire","country":"England","grid_reference":"SJ506331","easting":350666,"northing":333195,"lat":52.89393,"lng":-2.73475,"elevation":102,"postcode_sector":"SY13 2","local_government_area":"Shropshire","nuts_region":"West Midlands","type":"Hamlet","formatted_address":"Whitchurch SY13, UK"},{"id":88,"name":"Abercrombie","county":"Fife","country":"Scotland","grid_reference":"NO517028","easting":351785,"northing":702846,"lat":56.21573,"lng":-2.77899,"elevation":36,"postcode_sector":"KY10 2","local_government_area":"Fife","nuts_region":"Scotland","type":"Hamlet","formatted_address":"Law View Cottages, Abercrombie, Anstruther KY10 2DE, UK"},{"id":90,"name":"Abercych","county":"Dyfed","country":"Wales","grid_reference":"SN248408","easting":224855,"northing":240894,"lat":52.03871,"lng":-4.555,"elevation":24,"postcode_sector":"SA37 0","local_government_area":"Pembrokeshire / Sir Benfro","nuts_region":"Wales","type":"Village","formatted_address":"Porth Street, Abercych, Boncath SA37 0EY, UK"},{"id":10,"name":"Abbeycwmhir / Abaty Cwm-hir","county":"Powys","country":"Wales","grid_reference":"SO053712","easting":305386,"northing":271238,"lat":52.33104,"lng":-3.38988,"elevation":266,"postcode_sector":"LD1 6","local_government_area":"Powys","nuts_region":"Wales","type":"Hamlet","formatted_address":"Abbeycwmhir, Llandrindod Wells LD1 6PH, UK"},{"id":60,"name":"Abdon","county":"Shropshire","country":"England","grid_reference":"SO574863","easting":357407,"northing":286349,"lat":52.4734,"lng":-2.62848,"elevation":251,"postcode_sector":"SY7 9","local_government_area":"Shropshire","nuts_region":"West Midlands","type":"Hamlet","formatted_address":"Abdon, Craven Arms SY7 9HZ, UK"},{"id":38,"name":"Abbotsbury","county":"Dorset","country":"England","grid_reference":"SY577852","easting":357725,"northing":85274,"lat":50.66559,"lng":-2.59953,"elevation":43,"postcode_sector":"DT3 4","local_government_area":"West Dorset District","nuts_region":"South West","type":"Village","formatted_address":"Market St, Abbotsbury, Weymouth DT3 4JR, UK"},{"id":80,"name":"Abercastle","county":"Dyfed","country":"Wales","grid_reference":"SM854334","easting":185407,"northing":233471,"lat":51.9582,"lng":-5.12466,"elevation":24,"postcode_sector":"SA62 5","local_government_area":"Pembrokeshire / Sir Benfro","nuts_region":"Wales","type":"Hamlet","formatted_address":"Abercastle, Haverfordwest SA62 5HJ, UK"},{"id":113,"name":"Abergeirw","county":"Gwynedd","country":"Wales","grid_reference":"SH765283","easting":276582,"northing":328304,"lat":52.83807,"lng":-3.83366,"elevation":288,"postcode_sector":"LL40 2","local_government_area":"Gwynedd","nuts_region":"Wales","type":"Hamlet","formatted_address":"Dolgellau LL40 2PF, UK"},{"id":32,"name":"Abbey Wood","county":"Greater London","country":"England","grid_reference":"TQ464789","easting":546447,"northing":178983,"lat":51.49083,"lng":0.10803,"elevation":4,"postcode_sector":"SE2 9","local_government_area":"Greenwich","nuts_region":"London","type":"Suburban Area","formatted_address":"Bracondale Rd, London SE2 9EH, UK"},{"id":71,"name":"Aberarth","county":"Dyfed","country":"Wales","grid_reference":"SN479636","easting":247989,"northing":263665,"lat":52.25011,"lng":-4.2282,"elevation":23,"postcode_sector":"SA46 0","local_government_area":"Ceredigion / Sir Ceredigion","nuts_region":"Wales","type":"Village","formatted_address":"Troed-y-Bryn, Aberarth, Aberaeron SA46 0LS, UK"},{"id":36,"name":"Abbots Bromley","county":"Staffordshire","country":"England","grid_reference":"SK083244","easting":408370,"northing":324413,"lat":52.81719,"lng":-1.87725,"elevation":119,"postcode_sector":"WS15 3","local_government_area":"East Staffordshire District","nuts_region":"West Midlands","type":"Village","formatted_address":"Abbots Bromley, Rugeley WS15 3DH, UK"},{"id":17,"name":"Abbey Field","county":"Essex","country":"England","grid_reference":"TL995245","easting":599500,"northing":224500,"lat":51.88336,"lng":0.8973,"elevation":38,"postcode_sector":"CO2 7","local_government_area":"Colchester District","nuts_region":"Eastern","type":"Locality","formatted_address":"Stable Rd, Colchester CO2 7GL, UK"},{"id":104,"name":"Aberfan","county":"Mid Glamorgan","country":"Wales","grid_reference":"SO070001","easting":307066,"northing":200199,"lat":51.69282,"lng":-3.34593,"elevation":138,"postcode_sector":"CF48 4","local_government_area":"Merthyr Tydfil / Merthyr Tudful","nuts_region":"Wales","type":"Village","formatted_address":"Bridge St, Aberfan, Merthyr Tydfil CF48 4RB, UK"},{"id":21,"name":"Abbey Green","county":"Staffordshire","country":"England","grid_reference":"SJ979577","easting":397900,"northing":357773,"lat":53.11713,"lng":-2.03283,"elevation":174,"postcode_sector":"ST13 8","local_government_area":"Staffordshire Moorlands District","nuts_region":"West Midlands","type":"Hamlet","formatted_address":"Abbey Green Rd, Leek ST13 8SA, UK"},{"id":93,"name":"Aberdalgie","county":"Perth and Kinross","country":"Scotland","grid_reference":"NO078202","easting":307889,"northing":720245,"lat":56.36552,"lng":-3.49262,"elevation":52,"postcode_sector":"PH2 0","local_government_area":"Perth and Kinross","nuts_region":"Scotland","type":"Locality","formatted_address":"Aberdalgie, Perth PH2 0QD, UK"},{"id":6,"name":"Abberwick","county":"Northumberland","country":"England","grid_reference":"NU129132","easting":412938,"northing":613277,"lat":55.41325,"lng":-1.7972,"elevation":93,"postcode_sector":"NE66 2","local_government_area":"Northumberland","nuts_region":"North East","type":"Locality","formatted_address":"Alnwick NE66 2AY, UK"},{"id":95,"name":"Aberdaron","county":"Gwynedd","country":"Wales","grid_reference":"SH176271","easting":217624,"northing":327107,"lat":52.81058,"lng":-4.70736,"elevation":42,"postcode_sector":"LL53 8","local_government_area":"Gwynedd","nuts_region":"Wales","type":"Village","formatted_address":"Pwllheli LL53 8BH, UK"},{"id":44,"name":"Abbots Leigh","county":"Somerset","country":"England","grid_reference":"ST537737","easting":353799,"northing":173737,"lat":51.46071,"lng":-2.6664,"elevation":86,"postcode_sector":"BS8 3","local_government_area":"North Somerset","nuts_region":"South West","type":"Village","formatted_address":"Abbots Leigh, Bristol BS8 3SA, UK"},{"id":27,"name":"Abbey Parks","county":"Fife","country":"Scotland","grid_reference":"NT091873","easting":309108,"northing":687303,"lat":56.06989,"lng":-3.46159,"elevation":89,"postcode_sector":"KY12 7","local_government_area":"Fife","nuts_region":"Scotland","type":"Suburban Area","formatted_address":"Dunfermline KY12 7NL, UK"},{"id":84,"name":"Aber-Clydach","county":"West Glamorgan","country":"Wales","grid_reference":"SN687012","easting":268787,"northing":201233,"lat":51.69447,"lng":-3.89984,"elevation":26,"postcode_sector":"SA6 5","local_government_area":"Swansea / Abertawe","nuts_region":"Wales","type":"Suburban Area","formatted_address":"Quarr Rd, Clydach, Swansea SA6 5BY, UK"},{"id":25,"name":"Abbey Mead","county":"Surrey","country":"England","grid_reference":"TQ045675","easting":504500,"northing":167500,"lat":51.39692,"lng":-0.49929,"elevation":14,"postcode_sector":"KT16 8","local_government_area":"Runnymede District","nuts_region":"South East","type":"Locality","formatted_address":"Thames Side, Chertsey KT16 8RN, UK"},{"id":68,"name":"Aber-Arad","county":"Dyfed","country":"Wales","grid_reference":"SN315403","easting":231571,"northing":240356,"lat":52.03596,"lng":-4.45692,"elevation":39,"postcode_sector":"SA38 9","local_government_area":"Carmarthenshire / Sir Gaerfyrddin","nuts_region":"Wales","type":"Suburban Area","formatted_address":"Mill St, Aberarad, Aber-Arad, Newcastle Emlyn SA38 9DE, UK"},{"id":33,"name":"Abbey Yard","county":"The Stewartry of Kirkcudbright","country":"Scotland","grid_reference":"NX735645","easting":273500,"northing":564500,"lat":54.95903,"lng":-3.97713,"elevation":50,"postcode_sector":"DG7 2","local_government_area":"Dumfries and Galloway","nuts_region":"Scotland","type":"Locality","formatted_address":"Castle Douglas DG7 2LR, UK"},{"id":11,"name":"Abbeydale","county":"Gloucestershire","country":"England","grid_reference":"SO863164","easting":386373,"northing":216413,"lat":51.84615,"lng":-2.19922,"elevation":47,"postcode_sector":"GL4 4","local_government_area":"Gloucester District","nuts_region":"South West","type":"Suburban Area","formatted_address":"Mead Rd, Abbeymead, Gloucester GL4 5GL, UK"},{"id":24,"name":"Abbey Hulton","county":"Staffordshire","country":"England","grid_reference":"SJ907486","easting":390708,"northing":348651,"lat":53.03506,"lng":-2.14002,"elevation":136,"postcode_sector":"ST2 8","local_government_area":"City of Stoke-on-Trent","nuts_region":"West Midlands","type":"Suburban Area","formatted_address":"Hulton Rd, Stoke-on-Trent ST2 8HW, UK"},{"id":47,"name":"Abbot's Mead","county":"Cheshire","country":"England","grid_reference":"SJ398681","easting":339886,"northing":368119,"lat":53.20672,"lng":-2.90149,"elevation":8,"postcode_sector":"CH1 4","local_government_area":"Cheshire West and Chester","nuts_region":"North West","type":"Suburban Area","formatted_address":"Chester CH2 1BP, UK"},{"id":222,"name":"Achinduich","county":"Sutherland","country":"Scotland","grid_reference":"NH580999","easting":258059,"northing":899925,"lat":57.96589,"lng":-4.40097,"elevation":126,"postcode_sector":"IV27 4","local_government_area":"Highland","nuts_region":"Scotland","type":"Hamlet","formatted_address":"Lairg IV27 4EX, UK"},{"id":9,"name":"Abbey","county":"Devon","country":"England","grid_reference":"ST140106","easting":314090,"northing":110654,"lat":50.88896,"lng":-3.22276,"elevation":160,"postcode_sector":"EX14 4","local_government_area":"East Devon District","nuts_region":"South West","type":"Hamlet","formatted_address":"Dunkeswell, Honiton EX14 4RP, UK"},{"id":105,"name":"Aberfeldy","county":"Perth and Kinross","country":"Scotland","grid_reference":"NN854490","easting":285442,"northing":749023,"lat":56.61901,"lng":-3.86844,"elevation":102,"postcode_sector":"PH15 2","local_government_area":"Perth and Kinross","nuts_region":"Scotland","type":"Town","formatted_address":"Aberfeldy PH15 2PY, UK"},{"id":45,"name":"Abbotsley","county":"Cambridgeshire","country":"England","grid_reference":"TL229565","easting":522933,"northing":256521,"lat":52.19323,"lng":-0.20294,"elevation":45,"postcode_sector":"PE19 6","local_government_area":"Huntingdonshire District","nuts_region":"Eastern","type":"Village","formatted_address":"Abbotsley, Saint Neots PE19 6UY, UK"},{"id":18,"name":"Abbey Fields","county":"Warwickshire","country":"England","grid_reference":"SP283719","easting":428370,"northing":271950,"lat":52.3449,"lng":-1.58497,"elevation":81,"postcode_sector":"CV8 1","local_government_area":"Warwick District","nuts_region":"West Midlands","type":"Suburban Area","formatted_address":"Borrowell Ln, Kenilworth CV8 1ER, UK"},{"id":219,"name":"Achilty","county":"Ross and Cromarty","country":"Scotland","grid_reference":"NH441568","easting":244179,"northing":856875,"lat":57.57497,"lng":-4.60732,"elevation":35,"postcode_sector":"IV14 9","local_government_area":"Highland","nuts_region":"Scotland","type":"Hamlet","formatted_address":"Strathpeffer IV14 9EH, UK"},{"id":109,"name":"Aberfoyle","county":"Stirling and Falkirk","country":"Scotland","grid_reference":"NN524009","easting":252440,"northing":700933,"lat":56.17811,"lng":-4.37868,"elevation":24,"postcode_sector":"FK8 3","local_government_area":"Stirling","nuts_region":"Scotland","type":"Village","formatted_address":"Montrose Rd, Aberfoyle, Stirling FK8 3UL, UK"},{"id":43,"name":"Abbots Langley","county":"Hertfordshire","country":"England","grid_reference":"TL094019","easting":509444,"northing":201966,"lat":51.70577,"lng":-0.41754,"elevation":128,"postcode_sector":"WD5 0","local_government_area":"Three Rivers District","nuts_region":"Eastern","type":"Village","formatted_address":"Abbots Langley WD5 0AB, UK"},{"id":30,"name":"Abbeytown","county":"Cumbria","country":"England","grid_reference":"NY172507","easting":317279,"northing":550746,"lat":54.84466,"lng":-3.2897,"elevation":14,"postcode_sector":"CA7 4","local_government_area":"Allerdale District","nuts_region":"North West","type":"Village","formatted_address":null},{"id":29,"name":"Abbeystead","county":"Lancashire","country":"England","grid_reference":"SD563543","easting":356356,"northing":454382,"lat":53.98364,"lng":-2.66703,"elevation":115,"postcode_sector":"LA2 9","local_government_area":"Lancaster District","nuts_region":"North West","type":"Hamlet","formatted_address":"Abbeystead, Lancaster LA2 9BQ, UK"},{"id":215,"name":"Achgarve","county":"Ross and Cromarty","country":"Scotland","grid_reference":"NG892935","easting":189281,"northing":893560,"lat":57.8816,"lng":-5.55575,"elevation":12,"postcode_sector":"IV22 2","local_government_area":"Highland","nuts_region":"Scotland","type":"Hamlet","formatted_address":"Udrigle, Laide, Achnasheen IV22 2NR, UK"},{"id":75,"name":"Aberbechan","county":"Powys","country":"Wales","grid_reference":"SO136940","easting":313636,"northing":294040,"lat":52.53735,"lng":-3.27475,"elevation":110,"postcode_sector":"SY16 3","local_government_area":"Powys","nuts_region":"Wales","type":"Hamlet","formatted_address":"Aberbechan, Newtown SY16 3AS, UK"},{"id":213,"name":"Achfary / Achadh Fairidh","county":"Sutherland","country":"Scotland","grid_reference":"NC298387","easting":229849,"northing":938735,"lat":58.30413,"lng":-4.90541,"elevation":52,"postcode_sector":"IV27 4","local_government_area":"Highland","nuts_region":"Scotland","type":"Locality","formatted_address":"Achfary, Lairg IV27 4PQ, UK"},{"id":101,"name":"Aberedw","county":"Powys","country":"Wales","grid_reference":"SO078473","easting":307871,"northing":247394,"lat":52.11716,"lng":-3.34692,"elevation":136,"postcode_sector":"LD2 3","local_government_area":"Powys","nuts_region":"Wales","type":"Village","formatted_address":"Aberedw, Builth Wells LD2 3UL, UK"},{"id":133,"name":"Abermorlais","county":"Mid Glamorgan","country":"Wales","grid_reference":"SO047064","easting":304732,"northing":206492,"lat":51.749,"lng":-3.38141,"elevation":182,"postcode_sector":"CF47 8","local_government_area":"Merthyr Tydfil / Merthyr Tudful","nuts_region":"Wales","type":"Suburban Area","formatted_address":"Lower Edward St, Merthyr Tydfil CF47 8LY, UK"},{"id":200,"name":"Achany","county":"Sutherland","country":"Scotland","grid_reference":"NC569015","easting":256922,"northing":901538,"lat":57.98,"lng":-4.42114,"elevation":97,"postcode_sector":"IV27 4","local_government_area":"Highland","nuts_region":"Scotland","type":"Hamlet","formatted_address":"Lairg IV27 4EE, UK"},{"id":94,"name":"Aberdare / Aberdâr","county":"Mid Glamorgan","country":"Wales","grid_reference":"SO000026","easting":300072,"northing":202640,"lat":51.71356,"lng":-3.44778,"elevation":131,"postcode_sector":"CF44 7","local_government_area":"Rhondda Cynon Taf","nuts_region":"Wales","type":"Town","formatted_address":"Aberdare CF44 7AW, UK"},{"id":120,"name":"Abergwynfi","county":"West Glamorgan","country":"Wales","grid_reference":"SS893961","easting":289334,"northing":196164,"lat":51.65334,"lng":-3.60109,"elevation":301,"postcode_sector":"SA13 3","local_government_area":"Neath Port Talbot / Castell-nedd Port Talbot","nuts_region":"Wales","type":"Village","formatted_address":"High St, Abergwynfi, Port Talbot SA13 3YW, UK"},{"id":37,"name":"Abbotsbury","county":"Devon","country":"England","grid_reference":"SX858715","easting":285818,"northing":71596,"lat":50.53296,"lng":-3.61246,"elevation":21,"postcode_sector":"TQ12 2","local_government_area":"Teignbridge District","nuts_region":"South West","type":"Suburban Area","formatted_address":"Abbotsbury Rd, Newton Abbot TQ12 2NS, UK"},{"id":220,"name":"Achina","county":"Sutherland","country":"Scotland","grid_reference":"NC707610","easting":270738,"northing":961004,"lat":58.51793,"lng":-4.22086,"elevation":31,"postcode_sector":"KW14 7","local_government_area":"Highland","nuts_region":"Scotland","type":"Hamlet","formatted_address":"Achina, Bettyhill, Thurso KW14 7SG, UK"},{"id":103,"name":"Abererch","county":"Gwynedd","country":"Wales","grid_reference":"SH398366","easting":239805,"northing":336661,"lat":52.90344,"lng":-4.38329,"elevation":7,"postcode_sector":"LL53 6","local_government_area":"Gwynedd","nuts_region":"Wales","type":"Village","formatted_address":"Post Office Terrace, Abererch, Pwllheli LL53 6AJ, UK"},{"id":191,"name":"Achadh nan Darach","county":"Inverness","country":"Scotland","grid_reference":"NN005555","easting":200500,"northing":755500,"lat":56.64865,"lng":-5.25567,"elevation":119,"postcode_sector":"PA38 4","local_government_area":"Highland","nuts_region":"Scotland","type":"Locality","formatted_address":"Abhainn Cottages, Duror, Appin PA38 4BT, UK"},{"id":107,"name":"Aberffrwd","county":"Dyfed","country":"Wales","grid_reference":"SN686788","easting":268649,"northing":278832,"lat":52.39171,"lng":-3.93168,"elevation":63,"postcode_sector":"SY23 3","local_government_area":"Ceredigion / Sir Ceredigion","nuts_region":"Wales","type":"Hamlet","formatted_address":"Aberffrwd, Aberystwyth SY23 3ND, UK"},{"id":98,"name":"Aberdour","county":"Fife","country":"Scotland","grid_reference":"NT190853","easting":319018,"northing":685305,"lat":56.05372,"lng":-3.30185,"elevation":34,"postcode_sector":"KY3 0","local_government_area":"Fife","nuts_region":"Scotland","type":"Village","formatted_address":"High St, Aberdour, Burntisland KY3 0SH, UK"},{"id":150,"name":"Abertrinant","county":"Gwynedd","country":"Wales","grid_reference":"SH635055","easting":263500,"northing":305500,"lat":52.63004,"lng":-4.01825,"elevation":136,"postcode_sector":"LL36 9","local_government_area":"Gwynedd","nuts_region":"Wales","type":"Locality","formatted_address":"Tywyn LL36 9TL, UK"},{"id":139,"name":"Aber-oer","county":"Clwyd","country":"Wales","grid_reference":"SJ285490","easting":328516,"northing":349006,"lat":53.03354,"lng":-3.06743,"elevation":183,"postcode_sector":"LL14 4","local_government_area":"Wrexham / Wrecsam","nuts_region":"Wales","type":"Hamlet","formatted_address":"Aberoer Cottages, Rhostyllen, Wrexham LL14 4LG, UK"},{"id":166,"name":"Abingworth","county":"West Sussex","country":"England","grid_reference":"TQ101167","easting":510177,"northing":116725,"lat":50.93945,"lng":-0.43327,"elevation":45,"postcode_sector":"RH20 3","local_government_area":"Horsham District","nuts_region":"South East","type":"Hamlet","formatted_address":"Thakeham, Pulborough RH20 3EQ, UK"},{"id":4,"name":"Abberton","county":"Essex","country":"England","grid_reference":"TM006190","easting":600637,"northing":219093,"lat":51.8344,"lng":0.91066,"elevation":44,"postcode_sector":"CO5 7","local_government_area":"Colchester District","nuts_region":"Eastern","type":"Village","formatted_address":"Abberton, Colchester CO5 7LE, UK"},{"id":137,"name":"Abernethy","county":"Perth and Kinross","country":"Scotland","grid_reference":"NO190163","easting":319013,"northing":716355,"lat":56.33262,"lng":-3.31141,"elevation":38,"postcode_sector":"PH2 9","local_government_area":"Perth and Kinross","nuts_region":"Scotland","type":"Village","formatted_address":"Main St, Abernethy, Perth PH2 9JB, UK"},{"id":52,"name":"Abbotstone","county":"Hampshire","country":"England","grid_reference":"SU563345","easting":456309,"northing":134523,"lat":51.10725,"lng":-1.19707,"elevation":66,"postcode_sector":"SO24 9","local_government_area":"Winchester District","nuts_region":"South East","type":"Hamlet","formatted_address":"Abbotstone, Alresford SO24 9TE, UK"},{"id":91,"name":"Abercynon","county":"Mid Glamorgan","country":"Wales","grid_reference":"ST081949","easting":308177,"northing":194982,"lat":51.64611,"lng":-3.32849,"elevation":87,"postcode_sector":"CF45 4","local_government_area":"Rhondda Cynon Taf","nuts_region":"Wales","type":"Town","formatted_address":"Walter St, Abercynon, Mountain Ash CF45 4RD, UK"},{"id":115,"name":"Abergele","county":"Clwyd","country":"Wales","grid_reference":"SH945775","easting":294567,"northing":377548,"lat":53.28438,"lng":-3.58292,"elevation":17,"postcode_sector":"LL22 7","local_government_area":"Conwy","nuts_region":"Wales","type":"Town","formatted_address":"Market St, Abergele LL22 7AA, UK"},{"id":182,"name":"Abwell","county":"Gloucestershire","country":"England","grid_reference":"SO683008","easting":368397,"northing":200804,"lat":51.70508,"lng":-2.45873,"elevation":22,"postcode_sector":"GL13 9","local_government_area":"Stroud District","nuts_region":"South West","type":"Hamlet","formatted_address":"Berkeley GL13 9RN, UK"},{"id":204,"name":"Acharn","county":"Perth and Kinross","country":"Scotland","grid_reference":"NN756438","easting":275637,"northing":743857,"lat":56.57013,"lng":-4.02563,"elevation":118,"postcode_sector":"PH15 2","local_government_area":"Perth and Kinross","nuts_region":"Scotland","type":"Village","formatted_address":"Acharn, Aberfeldy PH15 2HS, UK"},{"id":211,"name":"Achduchil","county":"Inverness","country":"Scotland","grid_reference":"NN593924","easting":259329,"northing":792442,"lat":57.00164,"lng":-4.31757,"elevation":265,"postcode_sector":"PH20 1","local_government_area":"Highland","nuts_region":"Scotland","type":"Hamlet","formatted_address":"Strathmashie, Laggan, Newtonmore PH20 1BU, UK"},{"id":127,"name":"Aberlemno","county":"Angus","country":"Scotland","grid_reference":"NO521556","easting":352122,"northing":755696,"lat":56.69053,"lng":-2.78326,"elevation":137,"postcode_sector":"DD8 3","local_government_area":"Angus","nuts_region":"Scotland","type":"Hamlet","formatted_address":"School Rd, Aberlemno, Forfar DD8 3TE, UK"},{"id":214,"name":"Achfrish","county":"Sutherland","country":"Scotland","grid_reference":"NC564117","easting":256492,"northing":911796,"lat":58.07192,"lng":-4.43466,"elevation":116,"postcode_sector":"IV27 4","local_government_area":"Highland","nuts_region":"Scotland","type":"Hamlet","formatted_address":"Lairg IV27 4DN, UK"},{"id":111,"name":"Abergarwed","county":"West Glamorgan","country":"Wales","grid_reference":"SN816023","easting":281657,"northing":202384,"lat":51.70767,"lng":-3.71412,"elevation":32,"postcode_sector":"SA11 4","local_government_area":"Neath Port Talbot / Castell-nedd Port Talbot","nuts_region":"Wales","type":"Village","formatted_address":"Stag Terrace, Neath SA11 4DH, UK"},{"id":117,"name":"Abergorlech","county":"Dyfed","country":"Wales","grid_reference":"SN584336","easting":258483,"northing":233615,"lat":51.98292,"lng":-4.06208,"elevation":78,"postcode_sector":"SA32 7","local_government_area":"Carmarthenshire / Sir Gaerfyrddin","nuts_region":"Wales","type":"Village","formatted_address":"Cothi View, Abergorlech, Carmarthen SA32 7SN, UK"},{"id":23,"name":"Abbeyhill","county":"City of Edinburgh","country":"Scotland","grid_reference":"NT270744","easting":327066,"northing":674436,"lat":55.95738,"lng":-3.1697,"elevation":40,"postcode_sector":"EH7 5","local_government_area":"City of Edinburgh","nuts_region":"Scotland","type":"Suburban Area","formatted_address":"London Rd, Edinburgh EH7 5BD, UK"},{"id":16,"name":"Abbey End","county":"Warwickshire","country":"England","grid_reference":"SP286718","easting":428680,"northing":271865,"lat":52.34412,"lng":-1.58043,"elevation":92,"postcode_sector":"CV8 1","local_government_area":"Warwick District","nuts_region":"West Midlands","type":"Suburban Area","formatted_address":"Abbey End, Kenilworth CV8 1QJ, UK"},{"id":208,"name":"Achavar","county":"Caithness","country":"Scotland","grid_reference":"ND262370","easting":326280,"northing":937066,"lat":58.31594,"lng":-3.25999,"elevation":84,"postcode_sector":"KW3 6","local_government_area":"Highland","nuts_region":"Scotland","type":"Locality","formatted_address":"Occumster, Lybster KW3 6AU, UK"},{"id":114,"name":"Abergeldie","county":"Aberdeenshire","country":"Scotland","grid_reference":"NO286950","easting":328648,"northing":795098,"lat":57.04142,"lng":-3.1775,"elevation":265,"postcode_sector":"AB35 5","local_government_area":"Aberdeenshire","nuts_region":"Scotland","type":"Hamlet","formatted_address":"Ballater AB35 5SY, UK"},{"id":147,"name":"Abertillery / Abertyleri","county":"Gwent","country":"Wales","grid_reference":"SO217041","easting":321789,"northing":204126,"lat":51.73037,"lng":-3.13386,"elevation":229,"postcode_sector":"NP13 1","local_government_area":"Blaenau Gwent","nuts_region":"Wales","type":"Town","formatted_address":"Somerset St, Abertillery NP13 1ZY, UK"},{"id":118,"name":"Abergwesyn","county":"Powys","country":"Wales","grid_reference":"SN854527","easting":285477,"northing":252748,"lat":52.16109,"lng":-3.67564,"elevation":263,"postcode_sector":"LD5 4","local_government_area":"Powys","nuts_region":"Wales","type":"Hamlet","formatted_address":"Abergwesyn, Llanwrtyd Wells LD5 4TP, UK"},{"id":217,"name":"A' Chill","county":"Inverness","country":"Scotland","grid_reference":"NG272052","easting":127213,"northing":805291,"lat":57.05765,"lng":-6.50082,"elevation":9,"postcode_sector":"PH44 4","local_government_area":"Highland","nuts_region":"Scotland","type":"Hamlet","formatted_address":"Isle of Canna PH44, UK"},{"id":189,"name":"Acha","county":"Argyll and Bute","country":"Scotland","grid_reference":"NM186548","easting":118621,"northing":754859,"lat":56.6009,"lng":-6.58637,"elevation":33,"postcode_sector":"PA78 6","local_government_area":"Argyll and Bute","nuts_region":"Scotland","type":"Hamlet","formatted_address":"Isle of Coll PA78 6TB, UK"},{"id":126,"name":"Aberlady","county":"East Lothian","country":"Scotland","grid_reference":"NT465799","easting":346543,"northing":679954,"lat":56.00952,"lng":-2.8589,"elevation":11,"postcode_sector":"EH32 0","local_government_area":"East Lothian","nuts_region":"Scotland","type":"Village","formatted_address":"High St, Aberlady, Longniddry EH32 0RA, UK"},{"id":13,"name":"Abbeydale","county":"Worcestershire","country":"England","grid_reference":"SP051681","easting":405102,"northing":268179,"lat":52.3117,"lng":-1.92659,"elevation":90,"postcode_sector":"B98 8","local_government_area":"Redditch District","nuts_region":"West Midlands","type":"Suburban Area","formatted_address":"Woodfield Cl, Redditch B98 8JE, UK"},{"id":218,"name":"Achiltibuie","county":"Ross and Cromarty","country":"Scotland","grid_reference":"NC028077","easting":202896,"northing":907738,"lat":58.01495,"lng":-5.33837,"elevation":44,"postcode_sector":"IV26 2","local_government_area":"Highland","nuts_region":"Scotland","type":"Village","formatted_address":"Island View, Achiltibuie, Ullapool IV26 2YF, UK"},{"id":106,"name":"Aberffraw","county":"Gwynedd","country":"Wales","grid_reference":"SH354688","easting":235423,"northing":368872,"lat":53.1914,"lng":-4.46484,"elevation":16,"postcode_sector":"LL63 5","local_government_area":"Isle of Anglesey / Sir Ynys Mon","nuts_region":"Wales","type":"Village","formatted_address":"Church St, Aberffraw, Ty Croes LL63 5LQ, UK"},{"id":212,"name":"Acheninver","county":"Ross and Cromarty","country":"Scotland","grid_reference":"NC042053","easting":204200,"northing":905395,"lat":57.99451,"lng":-5.3144,"elevation":16,"postcode_sector":"IV26 2","local_government_area":"Highland","nuts_region":"Scotland","type":"Locality","formatted_address":"Achiltibuie, Ullapool IV26 2YL, UK"},{"id":221,"name":"Achindown","county":"Nairn","country":"Scotland","grid_reference":"NH839479","easting":283931,"northing":847980,"lat":57.50709,"lng":-3.93884,"elevation":131,"postcode_sector":"IV12 5","local_government_area":"Highland","nuts_region":"Scotland","type":"Locality","formatted_address":"Cawdor, Nairn IV12 5XR, UK"},{"id":123,"name":"Aberhafesp","county":"Powys","country":"Wales","grid_reference":"SO068923","easting":306895,"northing":292382,"lat":52.52133,"lng":-3.37364,"elevation":126,"postcode_sector":"SY16 3","local_government_area":"Powys","nuts_region":"Wales","type":"Village","formatted_address":"Aberhafesp, Newtown SY16 3HL, UK"},{"id":209,"name":"Achddu","county":"Dyfed","country":"Wales","grid_reference":"SN446015","easting":244648,"northing":201507,"lat":51.69076,"lng":-4.24895,"elevation":29,"postcode_sector":"SA16 0","local_government_area":"Carmarthenshire / Sir Gaerfyrddin","nuts_region":"Wales","type":"Suburban Area","formatted_address":"Burry Port SA16 0FD, UK"},{"id":122,"name":"Abergynolwyn","county":"Gwynedd","country":"Wales","grid_reference":"SH677070","easting":267710,"northing":307003,"lat":52.64459,"lng":-3.95669,"elevation":37,"postcode_sector":"LL36 9","local_government_area":"Gwynedd","nuts_region":"Wales","type":"Village","formatted_address":"Lichfield Terrace, Abergynolwyn, Tywyn LL36 9YN, UK"},{"id":110,"name":"Abergarw","county":"Mid Glamorgan","country":"Wales","grid_reference":"SS909850","easting":290937,"northing":185066,"lat":51.5539,"lng":-3.57447,"elevation":71,"postcode_sector":"CF32 8","local_government_area":"Bridgend / Pen-y-bont ar Ogwr","nuts_region":"Wales","type":"Suburban Area","formatted_address":"Ty Fry Cl, Brynmenyn, Bridgend CF32 8YB, UK"},{"id":180,"name":"Abthorpe","county":"Northamptonshire","country":"England","grid_reference":"SP649464","easting":464964,"northing":246445,"lat":52.11252,"lng":-1.05275,"elevation":121,"postcode_sector":"NN12 8","local_government_area":"South Northamptonshire District","nuts_region":"East Midlands","type":"Village","formatted_address":"Wappenham Rd, Abthorpe, Towcester NN12 8QU, UK"},{"id":178,"name":"Abshot","county":"Hampshire","country":"England","grid_reference":"SU517055","easting":451773,"northing":105584,"lat":50.84747,"lng":-1.26597,"elevation":25,"postcode_sector":"PO14 4","local_government_area":"Fareham District","nuts_region":"South East","type":"Hamlet","formatted_address":"Fareham PO14, UK"},{"id":145,"name":"Aber-Tafol","county":"Gwynedd","country":"Wales","grid_reference":"SN649969","easting":264905,"northing":296949,"lat":52.55357,"lng":-3.99401,"elevation":16,"postcode_sector":"LL35 0","local_government_area":"Gwynedd","nuts_region":"Wales","type":"Hamlet","formatted_address":"Abertafol, Aberdovey LL35 0RE, UK"},{"id":210,"name":"Achduart / Achadh Dubhaird","county":"Ross and Cromarty","country":"Scotland","grid_reference":"NC049037","easting":204958,"northing":903761,"lat":57.98019,"lng":-5.30025,"elevation":31,"postcode_sector":"IV26 2","local_government_area":"Highland","nuts_region":"Scotland","type":"Locality","formatted_address":"Achiltibuie, Ullapool IV26 2YL, UK"},{"id":170,"name":"Ablington","county":"Wiltshire","country":"England","grid_reference":"SU159469","easting":415958,"northing":146989,"lat":51.22188,"lng":-1.77288,"elevation":81,"postcode_sector":"SP4 8","local_government_area":"Wiltshire","nuts_region":"South West","type":"Hamlet","formatted_address":"Ablington, Figheldean, Salisbury SP4 8JX, UK"},{"id":207,"name":"Achavanich","county":"Caithness","country":"Scotland","grid_reference":"ND179426","easting":317967,"northing":942653,"lat":58.36463,"lng":-3.40382,"elevation":149,"postcode_sector":"KW5 6","local_government_area":"Highland","nuts_region":"Scotland","type":"Locality","formatted_address":"Latheron KW5 6DX, UK"},{"id":199,"name":"Ach'an Tobhair","county":"Inverness","country":"Scotland","grid_reference":"NN095725","easting":209500,"northing":772500,"lat":56.8049,"lng":-5.12175,"elevation":100,"postcode_sector":"PH33 6","local_government_area":"Highland","nuts_region":"Scotland","type":"Locality","formatted_address":"Ayr Pl, Fort William PH33 6UF, UK"},{"id":154,"name":"Aberwheeler / Aberchwiler","county":"Clwyd","country":"Wales","grid_reference":"SJ096693","easting":309676,"northing":369354,"lat":53.21354,"lng":-3.35404,"elevation":51,"postcode_sector":"LL16 4","local_government_area":"Denbighshire / Sir Ddinbych","nuts_region":"Wales","type":"Village","formatted_address":"Porth-Y-Waen, Bodfari, Denbigh LL16 4BU, UK"},{"id":141,"name":"Aber Pwll","county":"Gwynedd","country":"Wales","grid_reference":"SH533682","easting":253374,"northing":368284,"lat":53.19137,"lng":-4.19611,"elevation":20,"postcode_sector":"LL56 4","local_government_area":"Gwynedd","nuts_region":"Wales","type":"Suburban Area","formatted_address":"Y Felinheli LL56 4JZ, UK"},{"id":184,"name":"Acairseid","county":"Western Isles","country":"Scotland","grid_reference":"NF791101","easting":79197,"northing":810142,"lat":57.07015,"lng":-7.29541,"elevation":9,"postcode_sector":"HS8 5","local_government_area":"Na h-Eileanan an Iar","nuts_region":"Scotland","type":"Hamlet","formatted_address":"Acarsaid Mhor, Eriskay, Isle of South Uist HS8 5JP, UK"},{"id":201,"name":"Achaphubuil","county":"Inverness","country":"Scotland","grid_reference":"NN083759","easting":208322,"northing":775946,"lat":56.83532,"lng":-5.1436,"elevation":37,"postcode_sector":"PH33 7","local_government_area":"Highland","nuts_region":"Scotland","type":"Hamlet","formatted_address":"Achaphubil, Fort William PH33 7AL, UK"},{"id":116,"name":"Aber-Giâr","county":"Dyfed","country":"Wales","grid_reference":"SN503410","easting":250363,"northing":241094,"lat":52.04798,"lng":-4.1835,"elevation":144,"postcode_sector":"SA40 9","local_government_area":"Carmarthenshire / Sir Gaerfyrddin","nuts_region":"Wales","type":"Hamlet","formatted_address":"Llanllwni, Llanybydder SA40 9SQ, UK"},{"id":129,"name":"Aberllefenni","county":"Gwynedd","country":"Wales","grid_reference":"SH770099","easting":277057,"northing":309983,"lat":52.67356,"lng":-3.81973,"elevation":115,"postcode_sector":"SY20 9","local_government_area":"Gwynedd","nuts_region":"Wales","type":"Village","formatted_address":"Aberllefenni, Machynlleth SY20 9RX, UK"},{"id":169,"name":"Ablington","county":"Gloucestershire","country":"England","grid_reference":"SP104076","easting":410449,"northing":207635,"lat":51.7673,"lng":-1.84998,"elevation":112,"postcode_sector":"GL7 5","local_government_area":"Cotswold District","nuts_region":"South West","type":"Village","formatted_address":"Mill Cottages, Ablington, Bibury, Cirencester GL7 5NY, UK"},{"id":216,"name":"Achiemore","county":"Sutherland","country":"Scotland","grid_reference":"NC894577","easting":289493,"northing":957736,"lat":58.49376,"lng":-3.89751,"elevation":29,"postcode_sector":"KW13 6","local_government_area":"Highland","nuts_region":"Scotland","type":"Hamlet","formatted_address":"Bunahoun, Forsinard KW13 6YU, UK"},{"id":134,"name":"Abermule / Aber-miwl","county":"Powys","country":"Wales","grid_reference":"SO162947","easting":316229,"northing":294751,"lat":52.54414,"lng":-3.23671,"elevation":95,"postcode_sector":"SY15 6","local_government_area":"Powys","nuts_region":"Wales","type":"Village","formatted_address":"Dol-Las, Aber-miwl, Montgomery SY15 6JT, UK"},{"id":183,"name":"Aby","county":"Lincolnshire","country":"England","grid_reference":"TF412783","easting":541214,"northing":378361,"lat":53.28342,"lng":0.11672,"elevation":15,"postcode_sector":"LN13 0","local_government_area":"East Lindsey District","nuts_region":"East Midlands","type":"Village","formatted_address":"Aby, Alford LN13 0DP, UK"},{"id":96,"name":"Aberdeen","county":"City of Aberdeen","country":"Scotland","grid_reference":"NJ944065","easting":394426,"northing":806556,"lat":57.14985,"lng":-2.09376,"elevation":19,"postcode_sector":"AB24 5","local_government_area":"Aberdeen City","nuts_region":"Scotland","type":"City","formatted_address":"E N St, Aberdeen AB24 5HT, UK"},{"id":158,"name":"Abingdon-on-Thames","county":"Oxfordshire","country":"England","grid_reference":"SU498970","easting":449821,"northing":197063,"lat":51.67014,"lng":-1.28098,"elevation":57,"postcode_sector":"OX14 3","local_government_area":"Vale of White Horse District","nuts_region":"South East","type":"Town","formatted_address":"Abingdon OX14 3HJ, UK"},{"id":225,"name":"Achintee","county":"Ross and Cromarty","country":"Scotland","grid_reference":"NG941416","easting":194172,"northing":841693,"lat":57.41884,"lng":-5.42923,"elevation":23,"postcode_sector":"IV54 8","local_government_area":"Highland","nuts_region":"Scotland","type":"Hamlet","formatted_address":"Kelso Lodge Cottages, Strathcarron IV54 8YR, UK"},{"id":152,"name":"Aberuthven","county":"Perth and Kinross","country":"Scotland","grid_reference":"NN980153","easting":298046,"northing":715364,"lat":56.31966,"lng":-3.64999,"elevation":39,"postcode_sector":"PH3 1","local_government_area":"Perth and Kinross","nuts_region":"Scotland","type":"Village","formatted_address":"Dunning Rd, Aberuthven, Auchterarder PH3 1HQ, UK"},{"id":193,"name":"Achaleven","county":"Argyll and Bute","country":"Scotland","grid_reference":"NM915335","easting":191500,"northing":733500,"lat":56.44743,"lng":-5.38452,"elevation":17,"postcode_sector":"PA37 1","local_government_area":"Argyll and Bute","nuts_region":"Scotland","type":"Locality","formatted_address":"Achaleven Rd, Connel, Oban PA37 1PE, UK"},{"id":157,"name":"Abhainn Suidhe","county":"Western Isles","country":"Scotland","grid_reference":"NB047079","easting":104771,"northing":907917,"lat":57.96225,"lng":-6.99368,"elevation":8,"postcode_sector":"HS3 3","local_government_area":"Na h-Eileanan an Iar","nuts_region":"Scotland","type":"Hamlet","formatted_address":"Amhuinnsuidh, Isle of Harris HS3 3AS, UK"},{"id":198,"name":"Achanelid","county":"Argyll and Bute","country":"Scotland","grid_reference":"NS005875","easting":200500,"northing":687500,"lat":56.0387,"lng":-5.20408,"elevation":21,"postcode_sector":"PA22 3","local_government_area":"Argyll and Bute","nuts_region":"Scotland","type":"Locality","formatted_address":"Colintraive PA22 3AB, UK"},{"id":206,"name":"Achavandra Muir","county":"Sutherland","country":"Scotland","grid_reference":"NH770940","easting":277078,"northing":894052,"lat":57.91884,"lng":-4.07669,"elevation":129,"postcode_sector":"IV25 3","local_government_area":"Highland","nuts_region":"Scotland","type":"Locality","formatted_address":"Dornoch IV25 3JB, UK"},{"id":202,"name":"Acharacle / Àth-Tharracail","county":"Inverness","country":"Scotland","grid_reference":"NM675684","easting":167535,"northing":768459,"lat":56.74961,"lng":-5.80384,"elevation":12,"postcode_sector":"PH36 4","local_government_area":"Highland","nuts_region":"Scotland","type":"Village","formatted_address":"Acharacle PH36 4JU, UK"},{"id":159,"name":"Abinger Bottom","county":"Surrey","country":"England","grid_reference":"TQ127447","easting":512759,"northing":144761,"lat":51.19096,"lng":-0.3878,"elevation":200,"postcode_sector":"RH5 6","local_government_area":"Mole Valley District","nuts_region":"South East","type":"Hamlet","formatted_address":"Abinger Common, Dorking RH5 6JN, UK"},{"id":179,"name":"Abson","county":"Gloucestershire","country":"England","grid_reference":"ST704748","easting":370470,"northing":174869,"lat":51.47201,"lng":-2.42655,"elevation":94,"postcode_sector":"BS30 5","local_government_area":"South Gloucestershire","nuts_region":"South West","type":"Hamlet","formatted_address":"Abson, Wick, Bristol BS30 5TT, UK"},{"id":197,"name":"Achandunie","county":"Ross and Cromarty","country":"Scotland","grid_reference":"NH644721","easting":264452,"northing":872126,"lat":57.71839,"lng":-4.2772,"elevation":128,"postcode_sector":"IV17 0","local_government_area":"Highland","nuts_region":"Scotland","type":"Hamlet","formatted_address":"Achandunie Farm Cottages, Ardross, Alness IV17 0YB, UK"},{"id":195,"name":"Achamore / Acha Mòr","county":"Western Isles","country":"Scotland","grid_reference":"NB318289","easting":131812,"northing":928909,"lat":58.16731,"lng":-6.56214,"elevation":76,"postcode_sector":"HS2 9","local_government_area":"Na h-Eileanan an Iar","nuts_region":"Scotland","type":"Village","formatted_address":"Achmore, Isle of Lewis HS2 9DU, UK"},{"id":205,"name":"Achastle","county":"Caithness","country":"Scotland","grid_reference":"ND231346","easting":323194,"northing":934610,"lat":58.29336,"lng":-3.31183,"elevation":51,"postcode_sector":"KW3 6","local_government_area":"Highland","nuts_region":"Scotland","type":"Hamlet","formatted_address":"Lybster KW3 6BX, UK"},{"id":148,"name":"Abertridwr","county":"Gwent","country":"Wales","grid_reference":"ST120893","easting":312034,"northing":189353,"lat":51.59613,"lng":-3.27134,"elevation":141,"postcode_sector":"CF83 4","local_government_area":"Caerphilly / Caerffili","nuts_region":"Wales","type":"Village","formatted_address":"The Square, Abertridwr, Caerphilly CF83 4DH, UK"},{"id":188,"name":"Accrington","county":"Lancashire","country":"England","grid_reference":"SD760285","easting":376080,"northing":428549,"lat":53.75275,"lng":-2.36424,"elevation":140,"postcode_sector":"BB5 2","local_government_area":"Hyndburn District","nuts_region":"North West","type":"Town","formatted_address":"Church St, Accrington BB5 2EH, UK"},{"id":172,"name":"Aboyne","county":"Aberdeenshire","country":"Scotland","grid_reference":"NO520985","easting":352079,"northing":798596,"lat":57.07588,"lng":-2.79208,"elevation":138,"postcode_sector":"AB34 5","local_government_area":"Aberdeenshire","nuts_region":"Scotland","type":"Village","formatted_address":"Aboyne AB34 5FN, UK"},{"id":175,"name":"Abriachan","county":"Inverness","country":"Scotland","grid_reference":"NH555354","easting":255574,"northing":835424,"lat":57.38625,"lng":-4.40428,"elevation":271,"postcode_sector":"IV3 8","local_government_area":"Highland","nuts_region":"Scotland","type":"Locality","formatted_address":"Abriachan, Inverness IV3 8LE, UK"},{"id":164,"name":"Abington Pigotts","county":"Cambridgeshire","country":"England","grid_reference":"TL307444","easting":530720,"northing":244481,"lat":52.08326,"lng":-0.09371,"elevation":28,"postcode_sector":"SG8 0","local_government_area":"South Cambridgeshire District","nuts_region":"Eastern","type":"Village","formatted_address":"Abington Pigotts, Royston SG8 0SD, UK"},{"id":160,"name":"Abinger Common","county":"Surrey","country":"England","grid_reference":"TQ117456","easting":511759,"northing":145693,"lat":51.19953,"lng":-0.40182,"elevation":169,"postcode_sector":"RH5 6","local_government_area":"Mole Valley District","nuts_region":"South East","type":"Village","formatted_address":"Evelyn Cottages, Abinger Ln, Abinger Common, Dorking RH5 6JE, UK"},{"id":226,"name":"Achintraid / Achantraid","county":"Ross and Cromarty","country":"Scotland","grid_reference":"NG839388","easting":183993,"northing":838857,"lat":57.38869,"lng":-5.59587,"elevation":5,"postcode_sector":"IV54 8","local_government_area":"Highland","nuts_region":"Scotland","type":"Village","formatted_address":"Achintraid, Strathcarron IV54 8XB, UK"},{"id":130,"name":"Abermagwr","county":"Dyfed","country":"Wales","grid_reference":"SN665738","easting":266566,"northing":273809,"lat":52.34607,"lng":-3.96027,"elevation":55,"postcode_sector":"SY23 4","local_government_area":"Ceredigion / Sir Ceredigion","nuts_region":"Wales","type":"Hamlet","formatted_address":"Maesmagwr, Abermagwr, Aberystwyth SY23 4AS, UK"},{"id":174,"name":"Abram","county":"Greater Manchester","country":"England","grid_reference":"SD607015","easting":360794,"northing":401586,"lat":53.50949,"lng":-2.59264,"elevation":41,"postcode_sector":"WN2 5","local_government_area":"Wigan District","nuts_region":"North West","type":"Village","formatted_address":"Abram, Wigan WN2 5RH, UK"},{"id":132,"name":"Abermorddu / Yr Hôb","county":"Clwyd","country":"Wales","grid_reference":"SJ308568","easting":330888,"northing":356836,"lat":53.10422,"lng":-3.03375,"elevation":93,"postcode_sector":"LL12 9","local_government_area":"Flintshire / Sir y Fflint","nuts_region":"Wales","type":"Village","formatted_address":"Crossways, Caergwrle, Wrexham LL12 9BT, UK"},{"id":162,"name":"Abington","county":"Lanarkshire","country":"Scotland","grid_reference":"NS931233","easting":293192,"northing":623331,"lat":55.49206,"lng":-3.69204,"elevation":251,"postcode_sector":"ML12 6","local_government_area":"South Lanarkshire","nuts_region":"Scotland","type":"Village","formatted_address":"Hunters Ct, Abington, Biggar ML12 6TL, UK"},{"id":224,"name":"Achininver","county":"Sutherland","country":"Scotland","grid_reference":"NC575645","easting":257500,"northing":964500,"lat":58.54517,"lng":-4.45009,"elevation":118,"postcode_sector":"IV27 4","local_government_area":"Highland","nuts_region":"Scotland","type":"Locality","formatted_address":"E Strathan, Talmine, Lairg IV27 4YT, UK"},{"id":194,"name":"Achalone","county":"Caithness","country":"Scotland","grid_reference":"ND153569","easting":315306,"northing":956984,"lat":58.49279,"lng":-3.45459,"elevation":67,"postcode_sector":"KW12 6","local_government_area":"Highland","nuts_region":"Scotland","type":"Locality","formatted_address":"Halkirk KW12 6XA, UK"},{"id":34,"name":"Abbotrule","county":"Roxburgh, Ettrick and Lauderdale","country":"Scotland","grid_reference":"NT609130","easting":360910,"northing":613000,"lat":55.40936,"lng":-2.61892,"elevation":169,"postcode_sector":"TD9 8","local_government_area":"Scottish Borders","nuts_region":"Scotland","type":"Locality","formatted_address":"Bonchester Bridge, Hawick TD9 8JD, UK"},{"id":203,"name":"Achargary","county":"Sutherland","country":"Scotland","grid_reference":"NC725545","easting":272500,"northing":954500,"lat":58.46008,"lng":-4.187,"elevation":28,"postcode_sector":"KW14 7","local_government_area":"Highland","nuts_region":"Scotland","type":"Locality","formatted_address":"Strathnaver, Kinbrace KW11 6UA, UK"},{"id":190,"name":"Achadh a'Choirce / Achachork","county":"Ross and Cromarty","country":"Scotland","grid_reference":"NG481458","easting":148103,"northing":845818,"lat":57.43261,"lng":-6.19851,"elevation":93,"postcode_sector":"IV51 9","local_government_area":"Highland","nuts_region":"Scotland","type":"Village","formatted_address":"Portree IV51 9HT, UK"},{"id":173,"name":"Abraham Heights","county":"Lancashire","country":"England","grid_reference":"SD465612","easting":346552,"northing":461225,"lat":54.04421,"lng":-2.81772,"elevation":22,"postcode_sector":"LA1 5","local_government_area":"Lancaster District","nuts_region":"North West","type":"Suburban Area","formatted_address":"Coolidge Ave, Lancaster LA1 5EH, UK"},{"id":108,"name":"Aberford","county":"West Yorkshire","country":"England","grid_reference":"SE433372","easting":443343,"northing":437258,"lat":53.82978,"lng":-1.34296,"elevation":43,"postcode_sector":"LS25 3","local_government_area":"Leeds District","nuts_region":"Yorkshire and the Humber","type":"Village","formatted_address":"Bridge Cottages, Aberford, Leeds LS25 3AB, UK"},{"id":176,"name":"Abridge","county":"Essex","country":"England","grid_reference":"TQ466968","easting":546624,"northing":196823,"lat":51.65108,"lng":0.11802,"elevation":25,"postcode_sector":"RM4 1","local_government_area":"Epping Forest District","nuts_region":"Eastern","type":"Village","formatted_address":"White Hall, Market Pl, Abridge, Romford RM4 1UA, UK"},{"id":14,"name":"Abbeydale Park","county":"South Yorkshire","country":"England","grid_reference":"SK317807","easting":431711,"northing":380770,"lat":53.32291,"lng":-1.52539,"elevation":143,"postcode_sector":"S17 3","local_government_area":"Sheffield District","nuts_region":"Yorkshire and the Humber","type":"Suburban Area","formatted_address":"Devonshire Rd, Sheffield S17 3NT, UK"},{"id":97,"name":"Aberdesach","county":"Gwynedd","country":"Wales","grid_reference":"SH425513","easting":242593,"northing":351337,"lat":53.03608,"lng":-4.34901,"elevation":8,"postcode_sector":"LL54 5","local_government_area":"Gwynedd","nuts_region":"Wales","type":"Village","formatted_address":"Caernarfon LL54 5BP, UK"},{"id":42,"name":"Abbotskerswell","county":"Devon","country":"England","grid_reference":"SX856687","easting":285694,"northing":68785,"lat":50.50767,"lng":-3.61335,"elevation":31,"postcode_sector":"TQ12 5","local_government_area":"Teignbridge District","nuts_region":"South West","type":"Village","formatted_address":"Town Cottages, Abbotskerswell, Newton Abbot TQ12 5NX, UK"},{"id":187,"name":"Acaster Selby","county":"North Yorkshire","country":"England","grid_reference":"SE573414","easting":457387,"northing":441406,"lat":53.8657,"lng":-1.12883,"elevation":12,"postcode_sector":"YO23 7","local_government_area":"Selby District","nuts_region":"Yorkshire and the Humber","type":"Locality","formatted_address":"York YO23 7BP, UK"},{"id":223,"name":"Achingills","county":"Caithness","country":"Scotland","grid_reference":"ND153627","easting":315311,"northing":962714,"lat":58.54424,"lng":-3.45663,"elevation":66,"postcode_sector":"KW12 6","local_government_area":"Highland","nuts_region":"Scotland","type":"Locality","formatted_address":"Halkirk KW12 6XB, UK"},{"id":227,"name":"Achleck","county":"Argyll and Bute","country":"Scotland","grid_reference":"NM415455","easting":141500,"northing":745500,"lat":56.53021,"lng":-6.20544,"elevation":87,"postcode_sector":"PA73 6","local_government_area":"Argyll and Bute","nuts_region":"Scotland","type":"Locality","formatted_address":"Isle of Mull PA73 6LX, UK"},{"id":40,"name":"Abbotsham","county":"Devon","country":"England","grid_reference":"SS424264","easting":242457,"northing":126488,"lat":51.01613,"lng":-4.24738,"elevation":61,"postcode_sector":"EX39 5","local_government_area":"Torridge District","nuts_region":"South West","type":"Village","formatted_address":"Bideford EX39, UK"},{"id":61,"name":"Abdy","county":"South Yorkshire","country":"England","grid_reference":"SK435985","easting":443500,"northing":398500,"lat":53.48143,"lng":-1.34598,"elevation":71,"postcode_sector":"S62 7","local_government_area":"Rotherham District","nuts_region":"Yorkshire and the Humber","type":"Locality","formatted_address":"Rawmarsh, Rotherham S62 7SP, UK"},{"id":56,"name":"Abbots Worthy","county":"Hampshire","country":"England","grid_reference":"SU497326","easting":449752,"northing":132684,"lat":51.09132,"lng":-1.29097,"elevation":53,"postcode_sector":"SO21 1","local_government_area":"Winchester District","nuts_region":"South East","type":"Village","formatted_address":"Old Rectory Gardens, Abbots Worthy, Winchester SO21 1DU, UK"},{"id":54,"name":"Abbotswood","county":"Surrey","country":"England","grid_reference":"TQ008513","easting":500853,"northing":151305,"lat":51.25201,"lng":-0.55628,"elevation":48,"postcode_sector":"GU1 1","local_government_area":"Guildford District","nuts_region":"South East","type":"Suburban Area","formatted_address":"Abbotswood, Guildford GU1 1UX, UK"},{"id":85,"name":"Abercorn","county":"West Lothian","country":"Scotland","grid_reference":"NT082788","easting":308230,"northing":678889,"lat":55.99415,"lng":-3.47281,"elevation":42,"postcode_sector":"EH30 9","local_government_area":"West Lothian","nuts_region":"Scotland","type":"Hamlet","formatted_address":"Upper Parkhead Cottages, Queensferry, South Queensferry EH30 9SL, UK"},{"id":39,"name":"Abbotsford","county":"West Sussex","country":"England","grid_reference":"TQ303209","easting":530382,"northing":120922,"lat":50.97296,"lng":-0.14434,"elevation":29,"postcode_sector":"RH15 8","local_government_area":"Mid Sussex District","nuts_region":"South East","type":"Hamlet","formatted_address":"Burgess Hill RH15 8RF, UK"},{"id":86,"name":"Abercrave / Abercraf","county":"Powys","country":"Wales","grid_reference":"SN816126","easting":281684,"northing":212634,"lat":51.7998,"lng":-3.71722,"elevation":132,"postcode_sector":"SA9 1","local_government_area":"Powys","nuts_region":"Wales","type":"Village","formatted_address":"Heol Tawe, Abercraf, Swansea SA9 1XP, UK"},{"id":89,"name":"Abercwmboi","county":"Mid Glamorgan","country":"Wales","grid_reference":"ST025999","easting":302560,"northing":199938,"lat":51.68971,"lng":-3.41103,"elevation":119,"postcode_sector":"CF44 6","local_government_area":"Rhondda Cynon Taf","nuts_region":"Wales","type":"Suburban Area","formatted_address":"John St, Abercwmboi, Aberdare CF44 6BN, UK"},{"id":53,"name":"Abbotswood","county":"Hampshire","country":"England","grid_reference":"SU361234","easting":436115,"northing":123445,"lat":51.00926,"lng":-1.4866,"elevation":37,"postcode_sector":"SO51 7","local_government_area":"Test Valley District","nuts_region":"South East","type":"Village","formatted_address":"Romsey SO51 7AA, UK"},{"id":163,"name":"Abington","county":"Northamptonshire","country":"England","grid_reference":"SP780613","easting":478041,"northing":261367,"lat":52.24496,"lng":-0.8584,"elevation":81,"postcode_sector":"NN3 3","local_government_area":"Northampton District","nuts_region":"East Midlands","type":"Suburban Area","formatted_address":"Landcross Dr, Northampton NN3 3NA, UK"},{"id":64,"name":"Aber","county":"Powys","country":"Wales","grid_reference":"SO105213","easting":310511,"northing":221379,"lat":51.88376,"lng":-3.30157,"elevation":162,"postcode_sector":"LD3 7","local_government_area":"Powys","nuts_region":"Wales","type":"Hamlet","formatted_address":"Reservoir Cottages, Talybont-on-Usk, Brecon LD3 7YS, UK"},{"id":144,"name":"Abersychan","county":"Gwent","country":"Wales","grid_reference":"SO264046","easting":326401,"northing":204663,"lat":51.73582,"lng":-3.0672,"elevation":285,"postcode_sector":"NP4 7","local_government_area":"Torfaen / Tor-faen","nuts_region":"Wales","type":"Town","formatted_address":"Bailey St, Abersychan, Pontypool NP4 7RP, UK"},{"id":167,"name":"Ab Kettleby","county":"Leicestershire","country":"England","grid_reference":"SK723230","easting":472372,"northing":323040,"lat":52.80007,"lng":-0.92801,"elevation":145,"postcode_sector":"LE14 3","local_government_area":"Melton District","nuts_region":"East Midlands","type":"Village","formatted_address":"Wartnaby Rd, Ab Kettleby, Melton Mowbray LE14 3JJ, UK"},{"id":142,"name":"Aber Rhaeadr","county":"Powys","country":"Wales","grid_reference":"SJ130249","easting":313040,"northing":324903,"lat":52.81463,"lng":-3.29169,"elevation":125,"postcode_sector":"SY10 0","local_government_area":"Powys","nuts_region":"Wales","type":"Hamlet","formatted_address":"Llanrhaeadr-ym-Mochnant, Oswestry SY10 0AG, UK"},{"id":67,"name":"Aberangell","county":"Gwynedd","country":"Wales","grid_reference":"SH843103","easting":284380,"northing":310311,"lat":52.67812,"lng":-3.7116,"elevation":84,"postcode_sector":"SY20 9","local_government_area":"Gwynedd","nuts_region":"Wales","type":"Village","formatted_address":"Aberangell, Machynlleth SY20 9QN, UK"},{"id":69,"name":"Aberarder","county":"Inverness","country":"Scotland","grid_reference":"NN475875","easting":247500,"northing":787500,"lat":56.95353,"lng":-4.50913,"elevation":291,"postcode_sector":"PH20 1","local_government_area":"Highland","nuts_region":"Scotland","type":"Locality","formatted_address":"Kinloch Laggan, Newtonmore PH20 1BX, UK"},{"id":87,"name":"Abercregan","county":"West Glamorgan","country":"Wales","grid_reference":"SS850965","easting":285016,"northing":196589,"lat":51.65629,"lng":-3.66362,"elevation":190,"postcode_sector":"SA13 3","local_government_area":"Neath Port Talbot / Castell-nedd Port Talbot","nuts_region":"Wales","type":"Village","formatted_address":"Prosser's Terrace, Cymmer, Port Talbot SA13 3LE, UK"},{"id":63,"name":"Aber","county":"Dyfed","country":"Wales","grid_reference":"SN477484","easting":247713,"northing":248429,"lat":52.11315,"lng":-4.22539,"elevation":201,"postcode_sector":"SA40 9","local_government_area":"Ceredigion / Sir Ceredigion","nuts_region":"Wales","type":"Hamlet","formatted_address":"Cwrt-newydd, Llanybydder SA40 9YP, UK"},{"id":82,"name":"Aberchalder","county":"Inverness","country":"Scotland","grid_reference":"NH338036","easting":233863,"northing":803610,"lat":57.09339,"lng":-4.74371,"elevation":34,"postcode_sector":"PH35 4","local_government_area":"Highland","nuts_region":"Scotland","type":"Hamlet","formatted_address":"Invergarry PH35 4HN, UK"},{"id":66,"name":"Aberaman","county":"Mid Glamorgan","country":"Wales","grid_reference":"SO012013","easting":301296,"northing":201300,"lat":51.70173,"lng":-3.42969,"elevation":139,"postcode_sector":"CF44 6","local_government_area":"Rhondda Cynon Taf","nuts_region":"Wales","type":"Suburban Area","formatted_address":"Mount Hill St, Aberdare CF44 6YB, UK"},{"id":58,"name":"Abbotts Barton","county":"Hampshire","country":"England","grid_reference":"SU481308","easting":448185,"northing":130848,"lat":51.07494,"lng":-1.31359,"elevation":69,"postcode_sector":"SO23 7","local_government_area":"Winchester District","nuts_region":"South East","type":"Suburban Area","formatted_address":"Abbotts Ct, Park Rd, Winchester SO23 7BE, UK"},{"id":8,"name":"Abbess Roding","county":"Essex","country":"England","grid_reference":"TL571112","easting":557170,"northing":211283,"lat":51.77815,"lng":0.27685,"elevation":70,"postcode_sector":"CM5 0","local_government_area":"Epping Forest District","nuts_region":"Eastern","type":"Village","formatted_address":"Ongar CM5, UK"},{"id":22,"name":"Abbey Hey","county":"Greater Manchester","country":"England","grid_reference":"SJ895965","easting":389500,"northing":396500,"lat":53.46514,"lng":-2.15963,"elevation":87,"postcode_sector":"M18 8","local_government_area":"Manchester District","nuts_region":"North West","type":"Locality","formatted_address":"Midgley Ave, Manchester M18 8XP, UK"},{"id":77,"name":"Aberbran","county":"Powys","country":"Wales","grid_reference":"SN984296","easting":298420,"northing":229650,"lat":51.95603,"lng":-3.47962,"elevation":160,"postcode_sector":"LD3 9","local_government_area":"Powys","nuts_region":"Wales","type":"Hamlet","formatted_address":"Aberbran, Brecon LD3 9NH, UK"},{"id":83,"name":"Aberchirder","county":"Banffshire","country":"Scotland","grid_reference":"NJ624524","easting":362477,"northing":852418,"lat":57.56028,"lng":-2.62878,"elevation":146,"postcode_sector":"AB54 7","local_government_area":"Aberdeenshire","nuts_region":"Scotland","type":"Town","formatted_address":"The Square, Aberchirder, Huntly AB54 7TA, UK"},{"id":72,"name":"Aberavon","county":"West Glamorgan","country":"Wales","grid_reference":"SS752898","easting":275272,"northing":189812,"lat":51.59331,"lng":-3.80199,"elevation":10,"postcode_sector":"SA12 6","local_government_area":"Neath Port Talbot / Castell-nedd Port Talbot","nuts_region":"Wales","type":"Suburban Area","formatted_address":"Hospital Rd, Port Talbot SA12 6PE, UK"},{"id":48,"name":"Abbot's Meads","county":"Cheshire","country":"England","grid_reference":"SJ395675","easting":339500,"northing":367500,"lat":53.20112,"lng":-2.90716,"elevation":7,"postcode_sector":"CH1 5","local_government_area":"Cheshire West and Chester","nuts_region":"North West","type":"Locality","formatted_address":"Chester CH1 4BL, UK"},{"id":181,"name":"Abune-the-Hill","county":"Orkney","country":"Scotland","grid_reference":"HY294283","easting":329408,"northing":1028349,"lat":59.13606,"lng":-3.23533,"elevation":56,"postcode_sector":"KW17 2","local_government_area":"Orkney Islands","nuts_region":"Scotland","type":"Locality","formatted_address":"Orkney KW17 2NR, UK"},{"id":62,"name":"Abenhall","county":"Gloucestershire","country":"England","grid_reference":"SO669173","easting":366974,"northing":217339,"lat":51.85366,"lng":-2.4809,"elevation":154,"postcode_sector":"GL17 0","local_government_area":"Forest of Dean District","nuts_region":"South West","type":"Locality","formatted_address":"Mitcheldean GL17 0EE, UK"},{"id":79,"name":"Abercarn","county":"Gwent","country":"Wales","grid_reference":"ST215948","easting":321584,"northing":194893,"lat":51.64734,"lng":-3.13475,"elevation":104,"postcode_sector":"NP11 5","local_government_area":"Caerphilly / Caerffili","nuts_region":"Wales","type":"Town","formatted_address":"Abercarn, Newport NP11 5GJ, UK"},{"id":74,"name":"Aberbargoed / Aberbargod","county":"Gwent","country":"Wales","grid_reference":"SO154001","easting":315484,"northing":200147,"lat":51.69369,"lng":-3.22416,"elevation":211,"postcode_sector":"CF81 9","local_government_area":"Caerphilly / Caerffili","nuts_region":"Wales","type":"Village","formatted_address":"Commercial St, Aberbargoed, Bargoed CF81 9BU, UK"},{"id":28,"name":"Abbey St Bathans","county":"Berwickshire","country":"Scotland","grid_reference":"NT762618","easting":376241,"northing":661858,"lat":55.84934,"lng":-2.38104,"elevation":148,"postcode_sector":"TD11 3","local_government_area":"Scottish Borders","nuts_region":"Scotland","type":"Hamlet","formatted_address":"The Square, Abbey St Bathans, Duns TD11 3TX, UK"},{"id":55,"name":"Abbotswood","county":"Worcestershire","country":"England","grid_reference":"SO889492","easting":388916,"northing":249266,"lat":52.14157,"lng":-2.16338,"elevation":46,"postcode_sector":"WR5 3","local_government_area":"Wychavon District","nuts_region":"West Midlands","type":"Hamlet","formatted_address":"Wadborough Rd, Littleworth, Worcester WR5 2QB, UK"},{"id":92,"name":"Aber-Cywarch","county":"Gwynedd","country":"Wales","grid_reference":"SH868157","easting":286844,"northing":315774,"lat":52.72773,"lng":-3.67705,"elevation":102,"postcode_sector":"SY20 9","local_government_area":"Gwynedd","nuts_region":"Wales","type":"Hamlet","formatted_address":"Pen Y Graig, Abercywarch, Machynlleth SY20 9AF, UK"},{"id":59,"name":"Abcott","county":"Shropshire","country":"England","grid_reference":"SO391786","easting":339121,"northing":278600,"lat":52.40201,"lng":-2.89624,"elevation":135,"postcode_sector":"SY7 0","local_government_area":"Shropshire","nuts_region":"West Midlands","type":"Hamlet","formatted_address":"Clungunford, Craven Arms SY7 0PX, UK"},{"id":65,"name":"Aberaeron","county":"Dyfed","country":"Wales","grid_reference":"SN458628","easting":245842,"northing":262858,"lat":52.24226,"lng":-4.25925,"elevation":6,"postcode_sector":"SA46 0","local_government_area":"Ceredigion / Sir Ceredigion","nuts_region":"Wales","type":"Town","formatted_address":"Bridge St, Aberaeron SA46 0AP, UK"},{"id":12,"name":"Abbeydale","county":"South Yorkshire","country":"England","grid_reference":"SK327822","easting":432719,"northing":382237,"lat":53.33603,"lng":-1.51011,"elevation":112,"postcode_sector":"S8 0","local_government_area":"Sheffield District","nuts_region":"Yorkshire and the Humber","type":"Suburban Area","formatted_address":"Sheffield S7 2AB, UK"},{"id":57,"name":"Abbotts Ann","county":"Hampshire","country":"England","grid_reference":"SU328435","easting":432844,"northing":143599,"lat":51.19068,"lng":-1.5314,"elevation":62,"postcode_sector":"SP11 7","local_government_area":"Test Valley District","nuts_region":"South East","type":"Village","formatted_address":"Abbotts Ann, Andover SP11 7BE, UK"},{"id":76,"name":"Aberbeeg / Aber-big","county":"Gwent","country":"Wales","grid_reference":"SO207019","easting":320776,"northing":201907,"lat":51.71028,"lng":-3.14801,"elevation":160,"postcode_sector":"NP13 2","local_government_area":"Blaenau Gwent","nuts_region":"Wales","type":"Village","formatted_address":"Abertillery NP13 2BG, UK"},{"id":73,"name":"Aber-banc","county":"Dyfed","country":"Wales","grid_reference":"SN356417","easting":235610,"northing":241747,"lat":52.04967,"lng":-4.39876,"elevation":83,"postcode_sector":"SA44 5","local_government_area":"Ceredigion / Sir Ceredigion","nuts_region":"Wales","type":"Village","formatted_address":"Aber-banc, Llandysul SA44 5NP, UK"},{"id":102,"name":"Abereiddy","county":"Dyfed","country":"Wales","grid_reference":"SM795315","easting":179500,"northing":231500,"lat":51.9382,"lng":-5.20922,"elevation":9,"postcode_sector":"SA62 6","local_government_area":"Pembrokeshire / Sir Benfro","nuts_region":"Wales","type":"Locality","formatted_address":"Haverfordwest SA62 6DT, UK"},{"id":78,"name":"Abercanaid","county":"Mid Glamorgan","country":"Wales","grid_reference":"SO058036","easting":305851,"northing":203644,"lat":51.72359,"lng":-3.36443,"elevation":156,"postcode_sector":"CF48 1","local_government_area":"Merthyr Tydfil / Merthyr Tudful","nuts_region":"Wales","type":"Village","formatted_address":"Chapel St, Abercanaid, Merthyr Tydfil CF48 1SX, UK"},{"id":19,"name":"Abbey Gate","county":"Devon","country":"England","grid_reference":"SY295975","easting":329500,"northing":97500,"lat":50.77278,"lng":-3.00118,"elevation":55,"postcode_sector":"EX13 5","local_government_area":"East Devon District","nuts_region":"South West","type":"Locality","formatted_address":"Athelstan Cl, Axminster EX13 5RF, UK"},{"id":5,"name":"Abberton","county":"Worcestershire","country":"England","grid_reference":"SO995534","easting":399538,"northing":253477,"lat":52.17955,"lng":-2.00817,"elevation":68,"postcode_sector":"WR10 2","local_government_area":"Wychavon District","nuts_region":"West Midlands","type":"Hamlet","formatted_address":"Manor Farm Cottages, Abberton, Pershore WR10 2NR, UK"},{"id":7,"name":"Abbess End","county":"Essex","country":"England","grid_reference":"TL575115","easting":557500,"northing":211500,"lat":51.78,"lng":0.28172,"elevation":75,"postcode_sector":"CM5 0","local_government_area":"Epping Forest District","nuts_region":"Eastern","type":"Locality","formatted_address":"School Ln, Abbess Roding, Ongar CM5 0NY, UK"},{"id":70,"name":"Aberargie","county":"Perth and Kinross","country":"Scotland","grid_reference":"NO161157","easting":316149,"northing":715774,"lat":56.3269,"lng":-3.35753,"elevation":17,"postcode_sector":"PH2 9","local_government_area":"Perth and Kinross","nuts_region":"Scotland","type":"Village","formatted_address":"Nethermill Cottages, Aberargie, Perth PH2 9ND, UK"},{"id":99,"name":"Aberdovey / Aberdyfi","county":"Gwynedd","country":"Wales","grid_reference":"SN614959","easting":261463,"northing":295975,"lat":52.54395,"lng":-4.04434,"elevation":3,"postcode_sector":"LL35 0","local_government_area":"Gwynedd","nuts_region":"Wales","type":"Village","formatted_address":"Copperhill St, Aberdovey LL35 0EU, UK"},{"id":35,"name":"Abbots Bickington","county":"Devon","country":"England","grid_reference":"SS384134","easting":238400,"northing":113405,"lat":50.89745,"lng":-4.29936,"elevation":164,"postcode_sector":"EX22 7","local_government_area":"Torridge District","nuts_region":"South West","type":"Hamlet","formatted_address":"Holsworthy EX22 7LQ, UK"},{"id":15,"name":"Abbey Dore","county":"Herefordshire","country":"England","grid_reference":"SO385304","easting":338538,"northing":230489,"lat":51.96946,"lng":-2.89607,"elevation":93,"postcode_sector":"HR2 0","local_government_area":"County of Herefordshire","nuts_region":"West Midlands","type":"Village","formatted_address":"Dore Hamlet, Abbey Dore, Hereford HR2 0AA, UK"},{"id":81,"name":"Abercegir","county":"Powys","country":"Wales","grid_reference":"SH802017","easting":280291,"northing":301751,"lat":52.60032,"lng":-3.76894,"elevation":62,"postcode_sector":"SY20 8","local_government_area":"Powys","nuts_region":"Wales","type":"Village","formatted_address":"Glanfelin, Abercegir, Machynlleth SY20 8NR, UK"},{"id":100,"name":"Aberdulais","county":"West Glamorgan","country":"Wales","grid_reference":"SS773995","easting":277395,"northing":199578,"lat":51.68154,"lng":-3.77478,"elevation":21,"postcode_sector":"SA10 8","local_government_area":"Neath Port Talbot / Castell-nedd Port Talbot","nuts_region":"Wales","type":"Village","formatted_address":"Dulais Dr, Aberdulais, Neath SA10 8HB, UK"},{"id":50,"name":"Abbots Ripton","county":"Cambridgeshire","country":"England","grid_reference":"TL230781","easting":523054,"northing":278110,"lat":52.3872,"lng":-0.19329,"elevation":42,"postcode_sector":"PE28 2","local_government_area":"Huntingdonshire District","nuts_region":"Eastern","type":"Village","formatted_address":"Abbots Ripton, Huntingdon PE28 2GJ, UK"},{"id":196,"name":"Achanalt","county":"Ross and Cromarty","country":"Scotland","grid_reference":"NH252615","easting":225226,"northing":861576,"lat":57.61021,"lng":-4.9272,"elevation":121,"postcode_sector":"IV23 2","local_government_area":"Highland","nuts_region":"Scotland","type":"Hamlet","formatted_address":"Achanalt, Garve IV23 2QD, UK"},{"id":125,"name":"Aberkenfig / Abercynffig","county":"Mid Glamorgan","country":"Wales","grid_reference":"SS893835","easting":289357,"northing":183578,"lat":51.54022,"lng":-3.59678,"elevation":40,"postcode_sector":"CF32 9","local_government_area":"Bridgend / Pen-y-bont ar Ogwr","nuts_region":"Wales","type":"Village","formatted_address":"Bridgend Rd, Aberkenfig, Bridgend CF32 9BA, UK"},{"id":124,"name":"Aberhosan","county":"Powys","country":"Wales","grid_reference":"SN811973","easting":281172,"northing":297397,"lat":52.56139,"lng":-3.75437,"elevation":140,"postcode_sector":"SY20 8","local_government_area":"Powys","nuts_region":"Wales","type":"Village","formatted_address":"Maes Y Coed, Aberhosan, Machynlleth SY20 8RB, UK"},{"id":140,"name":"Aberporth","county":"Dyfed","country":"Wales","grid_reference":"SN261512","easting":226131,"northing":251298,"lat":52.13256,"lng":-4.54172,"elevation":34,"postcode_sector":"SA43 2","local_government_area":"Ceredigion / Sir Ceredigion","nuts_region":"Wales","type":"Village","formatted_address":"Aberporth, Cardigan SA43 2HH, UK"},{"id":185,"name":"Acarsaid","county":"Inverness","country":"Scotland","grid_reference":"NM585725","easting":158500,"northing":772500,"lat":56.78124,"lng":-5.95504,"elevation":4,"postcode_sector":"PH36 4","local_government_area":"Highland","nuts_region":"Scotland","type":"Locality","formatted_address":"Achateny, Acharacle PH36 4LG, UK"},{"id":136,"name":"Abernant","county":"Mid Glamorgan","country":"Wales","grid_reference":"SO008032","easting":300898,"northing":203257,"lat":51.71925,"lng":-3.43601,"elevation":157,"postcode_sector":"CF44 0","local_government_area":"Rhondda Cynon Taf","nuts_region":"Wales","type":"Suburban Area","formatted_address":"Aberdare CF44 0SB, UK"},{"id":121,"name":"Abergwyngregyn","county":"Gwynedd","country":"Wales","grid_reference":"SH655726","easting":265591,"northing":372664,"lat":53.23395,"lng":-4.01522,"elevation":32,"postcode_sector":"LL33 0","local_government_area":"Gwynedd","nuts_region":"Wales","type":"Village","formatted_address":"Abergwyngregyn, Llanfairfechan LL33 0LN, UK"},{"id":143,"name":"Abersoch","county":"Gwynedd","country":"Wales","grid_reference":"SH313281","easting":231358,"northing":328183,"lat":52.82472,"lng":-4.50436,"elevation":10,"postcode_sector":"LL53 7","local_government_area":"Gwynedd","nuts_region":"Wales","type":"Village","formatted_address":"Abersoch, Pwllheli LL53 7DW, UK"},{"id":161,"name":"Abinger Hammer","county":"Surrey","country":"England","grid_reference":"TQ096472","easting":509653,"northing":147276,"lat":51.21417,"lng":-0.43146,"elevation":96,"postcode_sector":"RH5 6","local_government_area":"Mole Valley District","nuts_region":"South East","type":"Village","formatted_address":"Abinger Hammer, Dorking RH5 6QX, UK"},{"id":177,"name":"Abronhill","county":"Dunbartonshire","country":"Scotland","grid_reference":"NS784755","easting":278442,"northing":675599,"lat":55.95798,"lng":-3.9486,"elevation":111,"postcode_sector":"G67 3","local_government_area":"North Lanarkshire","nuts_region":"Scotland","type":"Suburban Area","formatted_address":"Gean Ct, Cumbernauld, Glasgow G67 3LU, UK"},{"id":128,"name":"Aberlerry","county":"Dyfed","country":"Wales","grid_reference":"SN605925","easting":260500,"northing":292500,"lat":52.51249,"lng":-4.05707,"elevation":4,"postcode_sector":"SY24 5","local_government_area":"Ceredigion / Sir Ceredigion","nuts_region":"Wales","type":"Locality","formatted_address":"Min Y Don, Ynyslas, Borth SY24 5JU, UK"},{"id":233,"name":"Achmore","county":"Ross and Cromarty","country":"Scotland","grid_reference":"NH023966","easting":202377,"northing":896649,"lat":57.91528,"lng":-5.33788,"elevation":49,"postcode_sector":"IV23 2","local_government_area":"Highland","nuts_region":"Scotland","type":"Locality","formatted_address":null},{"id":153,"name":"Aber Village","county":"Powys","country":"Wales","grid_reference":"SO105215","easting":310500,"northing":221500,"lat":51.88485,"lng":-3.30176,"elevation":160,"postcode_sector":"LD3 7","local_government_area":"Powys","nuts_region":"Wales","type":"Locality","formatted_address":"Reservoir Cottages, Talybont-on-Usk, Brecon LD3 7YS, UK"},{"id":171,"name":"Abney","county":"Derbyshire","country":"England","grid_reference":"SK197798","easting":419789,"northing":379806,"lat":53.31482,"lng":-1.70443,"elevation":303,"postcode_sector":"S32 1","local_government_area":"Derbyshire Dales District","nuts_region":"East Midlands","type":"Hamlet","formatted_address":"Hope Valley S32 1AH, UK"},{"id":186,"name":"Acaster Malbis","county":"North Yorkshire","country":"England","grid_reference":"SE587454","easting":458778,"northing":445447,"lat":53.90186,"lng":-1.10691,"elevation":10,"postcode_sector":"YO23 2","local_government_area":"York","nuts_region":"Yorkshire and the Humber","type":"Village","formatted_address":"Yew Tree Cl, Acaster Malbis, York YO23 2YZ, UK"},{"id":131,"name":"Abermeurig","county":"Dyfed","country":"Wales","grid_reference":"SN560559","easting":256015,"northing":255978,"lat":52.1832,"lng":-4.10744,"elevation":101,"postcode_sector":"SA48 8","local_government_area":"Ceredigion / Sir Ceredigion","nuts_region":"Wales","type":"Hamlet","formatted_address":"Abermeurig, Lampeter SA48 8PP, UK"},{"id":151,"name":"Abertysswg","county":"Gwent","country":"Wales","grid_reference":"SO131055","easting":313148,"northing":205594,"lat":51.74229,"lng":-3.25931,"elevation":257,"postcode_sector":"NP22 5","local_government_area":"Caerphilly / Caerffili","nuts_region":"Wales","type":"Village","formatted_address":"Abertysswg, Tredegar NP22 5BG, UK"},{"id":234,"name":"Achmore","county":"Ross and Cromarty","country":"Scotland","grid_reference":"NG855335","easting":185587,"northing":833527,"lat":57.34166,"lng":-5.56476,"elevation":26,"postcode_sector":"IV53 8","local_government_area":"Highland","nuts_region":"Scotland","type":"Village","formatted_address":"Forestry Houses, Achmore, Strome Ferry IV53 8UN, UK"},{"id":135,"name":"Abernant","county":"Dyfed","country":"Wales","grid_reference":"SN340232","easting":234045,"northing":223210,"lat":51.88269,"lng":-4.41259,"elevation":95,"postcode_sector":"SA33 5","local_government_area":"Carmarthenshire / Sir Gaerfyrddin","nuts_region":"Wales","type":"Hamlet","formatted_address":"Lon Cendy, Abernant, Carmarthen SA33 5RR, UK"},{"id":168,"name":"Ab Lench","county":"Worcestershire","country":"England","grid_reference":"SP012517","easting":401233,"northing":251798,"lat":52.16445,"lng":-1.98339,"elevation":67,"postcode_sector":"WR11 4","local_government_area":"Wychavon District","nuts_region":"West Midlands","type":"Hamlet","formatted_address":"Evesham WR11 4UP, UK"},{"id":192,"name":"Achahoish","county":"Argyll and Bute","country":"Scotland","grid_reference":"NR779775","easting":177969,"northing":677582,"lat":55.93985,"lng":-5.55683,"elevation":26,"postcode_sector":"PA31 8","local_government_area":"Argyll and Bute","nuts_region":"Scotland","type":"Hamlet","formatted_address":"Ionad Shomhairle, Achahoish, Lochgilphead PA31 8PD, UK"},{"id":138,"name":"Abernyte","county":"Perth and Kinross","country":"Scotland","grid_reference":"NO258312","easting":325856,"northing":731224,"lat":56.46729,"lng":-3.20498,"elevation":117,"postcode_sector":"PH14 9","local_government_area":"Perth and Kinross","nuts_region":"Scotland","type":"Village","formatted_address":"Abernyte, Perth PH14 9ST, UK"},{"id":235,"name":"Achnabat","county":"Sutherland","country":"Scotland","grid_reference":"NC662627","easting":266227,"northing":962701,"lat":58.5318,"lng":-4.29923,"elevation":31,"postcode_sector":"KW14 7","local_government_area":"Highland","nuts_region":"Scotland","type":"Suburban Area","formatted_address":null},{"id":119,"name":"Abergwili","county":"Dyfed","country":"Wales","grid_reference":"SN436213","easting":243659,"northing":221326,"lat":51.86854,"lng":-4.27218,"elevation":8,"postcode_sector":"SA31 2","local_government_area":"Carmarthenshire / Sir Gaerfyrddin","nuts_region":"Wales","type":"Village","formatted_address":"Carmarthen SA31 2JH, UK"},{"id":231,"name":"Achlyness","county":"Sutherland","country":"Scotland","grid_reference":"NC248525","easting":224852,"northing":952500,"lat":58.42563,"lng":-5.00103,"elevation":31,"postcode_sector":"IV27 4","local_government_area":"Highland","nuts_region":"Scotland","type":"Hamlet","formatted_address":"Achlyness, Rhiconich, Lairg IV27 4RA, UK"},{"id":156,"name":"Aberystwyth","county":"Dyfed","country":"Wales","grid_reference":"SN583817","easting":258382,"northing":281709,"lat":52.41499,"lng":-4.08367,"elevation":11,"postcode_sector":"SY23 1","local_government_area":"Ceredigion / Sir Ceredigion","nuts_region":"Wales","type":"Town","formatted_address":"Aberystwyth SY23 2BH, UK"},{"id":228,"name":"Achlonan","county":"Argyll and Bute","country":"Scotland","grid_reference":"NN007314","easting":200745,"northing":731462,"lat":56.43315,"lng":-5.23324,"elevation":7,"postcode_sector":"PA35 1","local_government_area":"Argyll and Bute","nuts_region":"Scotland","type":"Suburban Area","formatted_address":"Achlonan, Taynuilt PA35 1JJ, UK"},{"id":232,"name":"Achmelvich","county":"Sutherland","country":"Scotland","grid_reference":"NC057247","easting":205791,"northing":924705,"lat":58.16836,"lng":-5.30351,"elevation":8,"postcode_sector":"IV27 4","local_government_area":"Highland","nuts_region":"Scotland","type":"Locality","formatted_address":"Torbreck, Lochinver, Lairg IV27 4JB, UK"},{"id":155,"name":"Aberyscir","county":"Powys","country":"Wales","grid_reference":"SN999298","easting":299942,"northing":229892,"lat":51.95848,"lng":-3.45755,"elevation":157,"postcode_sector":"LD3 9","local_government_area":"Powys","nuts_region":"Wales","type":"Hamlet","formatted_address":"Aberyscir, Brecon LD3 9NW, UK"},{"id":165,"name":"Abington Vale","county":"Northamptonshire","country":"England","grid_reference":"SP784609","easting":478496,"northing":260970,"lat":52.24133,"lng":-0.85183,"elevation":66,"postcode_sector":"NN3 3","local_government_area":"Northampton District","nuts_region":"East Midlands","type":"Suburban Area","formatted_address":"Billing Rd E, Northampton NN3 3LL, UK"},{"id":149,"name":"Abertridwr","county":"Powys","country":"Wales","grid_reference":"SJ033191","easting":303373,"northing":319125,"lat":52.76106,"lng":-3.43337,"elevation":238,"postcode_sector":"SY10 0","local_government_area":"Powys","nuts_region":"Wales","type":"Village","formatted_address":"Llanwddyn, Oswestry SY10 0LS, UK"},{"id":230,"name":"Achluachrach","county":"Inverness","country":"Scotland","grid_reference":"NN300810","easting":230023,"northing":781057,"lat":56.88963,"lng":-4.7918,"elevation":148,"postcode_sector":"PH31 4","local_government_area":"Highland","nuts_region":"Scotland","type":"Hamlet","formatted_address":"Roybridge, Roy Bridge PH31 4AW, UK"},{"id":229,"name":"Achlorachan","county":"Ross and Cromarty","country":"Scotland","grid_reference":"NH328551","easting":232886,"northing":855147,"lat":57.55544,"lng":-4.79473,"elevation":116,"postcode_sector":"IV6 7","local_government_area":"Highland","nuts_region":"Scotland","type":"Hamlet","formatted_address":"Achlorachan, Muir of Ord IV6 7QQ, UK"},{"id":239,"name":"Achnaconeran","county":"Inverness","country":"Scotland","grid_reference":"NH416179","easting":241636,"northing":817929,"lat":57.22462,"lng":-4.62467,"elevation":233,"postcode_sector":"IV63 7","local_government_area":"Highland","nuts_region":"Scotland","type":"Locality","formatted_address":"Riverside Park, Invermoriston, Inverness IV63 7YQ, UK"},{"id":238,"name":"Achnacloich","county":"Ross and Cromarty","country":"Scotland","grid_reference":"NG587089","easting":158797,"northing":808902,"lat":57.10762,"lng":-5.98489,"elevation":4,"postcode_sector":"IV46 8","local_government_area":"Highland","nuts_region":"Scotland","type":"Locality","formatted_address":"Tarskavaig, Isle of Skye IV46 8SB, UK"},{"id":236,"name":"Achnacarnin","county":"Sutherland","country":"Scotland","grid_reference":"NC041318","easting":204156,"northing":931838,"lat":58.23159,"lng":-5.33725,"elevation":68,"postcode_sector":"IV27 4","local_government_area":"Highland","nuts_region":"Scotland","type":"Hamlet","formatted_address":"Achnacarnin, Lochinver, Lairg IV27 4JG, UK"},{"id":242,"name":"Achnagoul","county":"Argyll and Bute","country":"Scotland","grid_reference":"NN059054","easting":205929,"northing":705430,"lat":56.20178,"lng":-5.13012,"elevation":86,"postcode_sector":"PA32 8","local_government_area":"Argyll and Bute","nuts_region":"Scotland","type":"Locality","formatted_address":"Inveraray PA32 8XT, UK"},{"id":241,"name":"Achnagarron","county":"Ross and Cromarty","country":"Scotland","grid_reference":"NH683702","easting":268345,"northing":870245,"lat":57.70267,"lng":-4.21087,"elevation":23,"postcode_sector":"IV18 0","local_government_area":"Highland","nuts_region":"Scotland","type":"Hamlet","formatted_address":"Invergordon IV18 0PW, UK"},{"id":237,"name":"Achnacarry","county":"Inverness","country":"Scotland","grid_reference":"NN175879","easting":217526,"northing":787906,"lat":56.94632,"lng":-5.00157,"elevation":49,"postcode_sector":"PH34 4","local_government_area":"Highland","nuts_region":"Scotland","type":"Hamlet","formatted_address":"Clunes, Achnacarry, Spean Bridge PH34 4EJ, UK"},{"id":240,"name":"Achnacroish","county":"Argyll and Bute","country":"Scotland","grid_reference":"NM851409","easting":185132,"northing":740975,"lat":56.5116,"lng":-5.49378,"elevation":11,"postcode_sector":"PA34 5","local_government_area":"Argyll and Bute","nuts_region":"Scotland","type":"Hamlet","formatted_address":"Newfield Terrace, Oban PA34 5UJ, UK"},{"id":244,"name":"Achnahanat","county":"Sutherland","country":"Scotland","grid_reference":"NH517981","easting":251758,"northing":898129,"lat":57.94772,"lng":-4.50624,"elevation":85,"postcode_sector":"IV27 4","local_government_area":"Highland","nuts_region":"Scotland","type":"Locality","formatted_address":"Ardgay IV24 3DP, UK"},{"id":243,"name":"Achnaha","county":"Inverness","country":"Scotland","grid_reference":"NM462682","easting":146294,"northing":768255,"lat":56.73672,"lng":-6.15007,"elevation":30,"postcode_sector":"PH36 4","local_government_area":"Highland","nuts_region":"Scotland","type":"Hamlet","formatted_address":"Kilchoan, Acharacle PH36 4LW, UK"},{"id":247,"name":"Achnahuaigh","county":"Sutherland","country":"Scotland","grid_reference":"NC579641","easting":257997,"northing":964190,"lat":58.54255,"lng":-4.44136,"elevation":69,"postcode_sector":"IV27 4","local_government_area":"Highland","nuts_region":"Scotland","type":"Suburban Area","formatted_address":"E Strathan, Talmine, Lairg IV27 4YT, UK"},{"id":256,"name":"Achranich","county":"Inverness","country":"Scotland","grid_reference":"NM702473","easting":170225,"northing":747383,"lat":56.56201,"lng":-5.74117,"elevation":9,"postcode_sector":"PA80 5","local_government_area":"Highland","nuts_region":"Scotland","type":"Locality","formatted_address":"Oban PA34 5UZ, UK"},{"id":258,"name":"Achriesgill","county":"Sutherland","country":"Scotland","grid_reference":"NC255540","easting":225583,"northing":954061,"lat":58.43992,"lng":-4.98972,"elevation":11,"postcode_sector":"IV27 4","local_government_area":"Highland","nuts_region":"Scotland","type":"Hamlet","formatted_address":"Rhiconich, Lairg IV27 4RJ, UK"},{"id":246,"name":"Achnahard","county":"Argyll and Bute","country":"Scotland","grid_reference":"NM395235","easting":139500,"northing":723500,"lat":56.332,"lng":-6.21596,"elevation":8,"postcode_sector":"PA67 6","local_government_area":"Argyll and Bute","nuts_region":"Scotland","type":"Locality","formatted_address":"Bunessan, Ardtun, Isle of Mull PA67 6DH, UK"},{"id":259,"name":"Achrimsdale","county":"Sutherland","country":"Scotland","grid_reference":"NC906064","easting":290640,"northing":906492,"lat":58.03405,"lng":-3.85366,"elevation":29,"postcode_sector":"KW9 6","local_government_area":"Highland","nuts_region":"Scotland","type":"Hamlet","formatted_address":"Achrimsdale, Brora KW9 6LT, UK"},{"id":2,"name":"Abbas Combe","county":"Somerset","country":"England","grid_reference":"ST707226","easting":370749,"northing":122688,"lat":51.00283,"lng":-2.41825,"elevation":91,"postcode_sector":"BA8 0","local_government_area":"South Somerset District","nuts_region":"South West","type":"Village","formatted_address":"Church Hill, Templecombe BA8 0HD, UK"},{"id":269,"name":"Ackers Crossing","county":"Cheshire","country":"England","grid_reference":"SJ847589","easting":384730,"northing":358942,"lat":53.12742,"lng":-2.22966,"elevation":129,"postcode_sector":"CW12 3","local_government_area":"Cheshire East","nuts_region":"North West","type":"Hamlet","formatted_address":"Congleton CW12 3GZ, UK"},{"id":265,"name":"Achuvoldrach","county":"Sutherland","country":"Scotland","grid_reference":"NC567591","easting":256745,"northing":959109,"lat":58.49655,"lng":-4.45966,"elevation":20,"postcode_sector":"IV27 4","local_government_area":"Highland","nuts_region":"Scotland","type":"Locality","formatted_address":"Tongue, Lairg IV27 4XH, UK"},{"id":250,"name":"Achnandarach","county":"Ross and Cromarty","country":"Scotland","grid_reference":"NG805311","easting":180512,"northing":831109,"lat":57.31757,"lng":-5.64676,"elevation":128,"postcode_sector":"IV52 8","local_government_area":"Highland","nuts_region":"Scotland","type":"Hamlet","formatted_address":"Plockton IV52 8TY, UK"},{"id":268,"name":"Ackergillshore","county":"Caithness","country":"Scotland","grid_reference":"ND358544","easting":335846,"northing":954404,"lat":58.47313,"lng":-3.1016,"elevation":10,"postcode_sector":"KW1 4","local_government_area":"Highland","nuts_region":"Scotland","type":"Hamlet","formatted_address":"Tower Square, Ackergill, Wick KW1 4RN, UK"},{"id":253,"name":"Achnavast","county":"Caithness","country":"Scotland","grid_reference":"ND079643","easting":307951,"northing":964317,"lat":58.55713,"lng":-3.58367,"elevation":51,"postcode_sector":"KW14 7","local_government_area":"Highland","nuts_region":"Scotland","type":"Hamlet","formatted_address":"Bardnaclaven Pl, Janetstown, Thurso KW14 7XG, UK"},{"id":260,"name":"Achscrabster","county":"Caithness","country":"Scotland","grid_reference":"ND084635","easting":308487,"northing":963515,"lat":58.55005,"lng":-3.57414,"elevation":66,"postcode_sector":"KW14 7","local_government_area":"Highland","nuts_region":"Scotland","type":"Locality","formatted_address":"Thurso KW14 7XN, UK"},{"id":271,"name":"Acklam","county":"North Yorkshire","country":"England","grid_reference":"SE783616","easting":478309,"northing":461685,"lat":54.0452,"lng":-0.80555,"elevation":122,"postcode_sector":"YO17 9","local_government_area":"Ryedale District","nuts_region":"Yorkshire and the Humber","type":"Village","formatted_address":"Ainsty View, Acklam, Malton YO17 9RQ, UK"},{"id":262,"name":"Achterneed","county":"Ross and Cromarty","country":"Scotland","grid_reference":"NH489595","easting":248931,"northing":859581,"lat":57.60087,"lng":-4.52963,"elevation":48,"postcode_sector":"IV14 9","local_government_area":"Highland","nuts_region":"Scotland","type":"Hamlet","formatted_address":"Strathpeffer IV14 9AA, UK"},{"id":273,"name":"Acklington","county":"Northumberland","country":"England","grid_reference":"NU223018","easting":422305,"northing":601809,"lat":55.30987,"lng":-1.65016,"elevation":44,"postcode_sector":"NE65 9","local_government_area":"Northumberland","nuts_region":"North East","type":"Village","formatted_address":"Acklington, Morpeth NE65 9BP, UK"},{"id":266,"name":"Ackenthwaite","county":"Cumbria","country":"England","grid_reference":"SD506818","easting":350631,"northing":481800,"lat":54.22952,"lng":-2.75881,"elevation":35,"postcode_sector":"LA7 7","local_government_area":"South Lakeland District","nuts_region":"North West","type":"Village","formatted_address":"Ackenthwaite, Milnthorpe LA7 7LP, UK"},{"id":252,"name":"Achnashellach / Achadh na Seileach","county":"Ross and Cromarty","country":"Scotland","grid_reference":"NH002481","easting":200215,"northing":848183,"lat":57.47974,"lng":-5.33409,"elevation":50,"postcode_sector":"IV54 8","local_government_area":"Highland","nuts_region":"Scotland","type":"Hamlet","formatted_address":"Strathcarron IV54 8YU, UK"},{"id":263,"name":"Achtoty","county":"Sutherland","country":"Scotland","grid_reference":"NC674623","easting":267418,"northing":962307,"lat":58.52862,"lng":-4.27856,"elevation":19,"postcode_sector":"KW14 7","local_government_area":"Highland","nuts_region":"Scotland","type":"Suburban Area","formatted_address":"Borgie, Skerray, Thurso KW14 7TH, UK"},{"id":245,"name":"Achnahannet","county":"Inverness","country":"Scotland","grid_reference":"NH975275","easting":297500,"northing":827500,"lat":57.32648,"lng":-3.70393,"elevation":252,"postcode_sector":"PH26 3","local_government_area":"Highland","nuts_region":"Scotland","type":"Locality","formatted_address":"Dulnain Bridge, Grantown-on-Spey PH26 3PD, UK"},{"id":274,"name":"Ackton","county":"West Yorkshire","country":"England","grid_reference":"SE411218","easting":441151,"northing":421840,"lat":53.69139,"lng":-1.37831,"elevation":50,"postcode_sector":"WF7 6","local_government_area":"Wakefield District","nuts_region":"Yorkshire and the Humber","type":"Village","formatted_address":"Pontefract WF7 6HP, UK"},{"id":282,"name":"Acre","county":"City of Glasgow","country":"Scotland","grid_reference":"NS559697","easting":255965,"northing":669729,"lat":55.89907,"lng":-4.30518,"elevation":44,"postcode_sector":"G20 0","local_government_area":"Glasgow City","nuts_region":"Scotland","type":"Suburban Area","formatted_address":"Dalsholm Pl, Glasgow G20 0UH, UK"},{"id":281,"name":"Aconbury","county":"Herefordshire","country":"England","grid_reference":"SO515334","easting":351573,"northing":233484,"lat":51.99768,"lng":-2.70677,"elevation":132,"postcode_sector":"HR2 6","local_government_area":"County of Herefordshire","nuts_region":"West Midlands","type":"Locality","formatted_address":"Aconbury, Hereford HR2 6PQ, UK"},{"id":264,"name":"Achurch","county":"Northamptonshire","country":"England","grid_reference":"TL024829","easting":502405,"northing":282923,"lat":52.4347,"lng":-0.49511,"elevation":51,"postcode_sector":"PE8 5","local_government_area":"East Northamptonshire District","nuts_region":"East Midlands","type":"Hamlet","formatted_address":"Achurch, Peterborough PE8 5SL, UK"},{"id":254,"name":"Achosnich","county":"Inverness","country":"Scotland","grid_reference":"NM444671","easting":144461,"northing":767124,"lat":56.72558,"lng":-6.17883,"elevation":40,"postcode_sector":"PH36 4","local_government_area":"Highland","nuts_region":"Scotland","type":"Hamlet","formatted_address":"Kilchoan, Acharacle PH36 4LN, UK"},{"id":276,"name":"Acle","county":"Norfolk","country":"England","grid_reference":"TG401105","easting":640161,"northing":310543,"lat":52.63944,"lng":1.54816,"elevation":7,"postcode_sector":"NR13 3","local_government_area":"Broadland District","nuts_region":"Eastern","type":"Village","formatted_address":"The Green, Acle, Norwich NR13 3QX, UK"},{"id":255,"name":"Achow","county":"Caithness","country":"Scotland","grid_reference":"ND230367","easting":323022,"northing":936798,"lat":58.31298,"lng":-3.31549,"elevation":122,"postcode_sector":"KW3 6","local_government_area":"Highland","nuts_region":"Scotland","type":"Locality","formatted_address":"Lybster KW3 6BY, UK"},{"id":261,"name":"Achtalean","county":"Ross and Cromarty","country":"Scotland","grid_reference":"NG475465","easting":147500,"northing":846500,"lat":57.43839,"lng":-6.20922,"elevation":108,"postcode_sector":"IV51 9","local_government_area":"Highland","nuts_region":"Scotland","type":"Locality","formatted_address":"Portree IV51 9LZ, UK"},{"id":275,"name":"Ackworth Moor Top","county":"West Yorkshire","country":"England","grid_reference":"SE434162","easting":443455,"northing":416200,"lat":53.64052,"lng":-1.34421,"elevation":56,"postcode_sector":"WF7 7","local_government_area":"Wakefield District","nuts_region":"Yorkshire and the Humber","type":"Village","formatted_address":"Ackworth, Pontefract WF7 7JN, UK"},{"id":279,"name":"Acomb","county":"Northumberland","country":"England","grid_reference":"NY931664","easting":393128,"northing":566451,"lat":54.9926,"lng":-2.10894,"elevation":79,"postcode_sector":"NE46 4","local_government_area":"Northumberland","nuts_region":"North East","type":"Village","formatted_address":"Acomb, Hexham NE46 4PU, UK"},{"id":248,"name":"Achnairn","county":"Sutherland","country":"Scotland","grid_reference":"NC552126","easting":255257,"northing":912672,"lat":58.07938,"lng":-4.45612,"elevation":126,"postcode_sector":"IV27 4","local_government_area":"Highland","nuts_region":"Scotland","type":"Hamlet","formatted_address":"Lairg IV27 4DN, UK"},{"id":277,"name":"Acocks Green","county":"West Midlands","country":"England","grid_reference":"SP118830","easting":411845,"northing":283099,"lat":52.44573,"lng":-1.82716,"elevation":134,"postcode_sector":"B27 7","local_government_area":"Birmingham District","nuts_region":"West Midlands","type":"Suburban Area","formatted_address":"Westley Rd, Birmingham B27 7UJ, UK"},{"id":249,"name":"Achnamara","county":"Argyll and Bute","country":"Scotland","grid_reference":"NR778871","easting":177887,"northing":687131,"lat":56.02544,"lng":-5.56602,"elevation":5,"postcode_sector":"PA31 8","local_government_area":"Argyll and Bute","nuts_region":"Scotland","type":"Village","formatted_address":"Achnamara, Lochgilphead PA31 8PX, UK"},{"id":257,"name":"Achreamie","county":"Caithness","country":"Scotland","grid_reference":"ND017666","easting":301798,"northing":966642,"lat":58.57666,"lng":-3.69037,"elevation":71,"postcode_sector":"KW14 7","local_government_area":"Highland","nuts_region":"Scotland","type":"Locality","formatted_address":"Skaill, Thurso KW14 7YD, UK"},{"id":270,"name":"Acklam","county":"North Yorkshire","country":"England","grid_reference":"NZ483166","easting":448341,"northing":516660,"lat":54.5429,"lng":-1.2543,"elevation":24,"postcode_sector":"TS5 7","local_government_area":"Middlesbrough","nuts_region":"North East","type":"Suburban Area","formatted_address":"Hall Dr, Middlesbrough TS5 7EN, UK"},{"id":288,"name":"Acres Nook","county":"Staffordshire","country":"England","grid_reference":"SJ842532","easting":384230,"northing":353233,"lat":53.07609,"lng":-2.23685,"elevation":183,"postcode_sector":"ST6 4","local_government_area":"Newcastle-under-Lyme District","nuts_region":"West Midlands","type":"Suburban Area","formatted_address":"Woodstock Rd, Stoke-on-Trent ST6 4QN, UK"},{"id":283,"name":"Acre","county":"Greater Manchester","country":"England","grid_reference":"SD936061","easting":393670,"northing":406177,"lat":53.55218,"lng":-2.09701,"elevation":211,"postcode_sector":"OL1 4","local_government_area":"Oldham District","nuts_region":"North West","type":"Suburban Area","formatted_address":"Sydenham St, Oldham OL1 4BT, UK"},{"id":287,"name":"Acresford","county":"Leicestershire","country":"England","grid_reference":"SK299131","easting":429933,"northing":313139,"lat":52.71509,"lng":-1.55833,"elevation":79,"postcode_sector":"DE12 8","local_government_area":"North West Leicestershire District","nuts_region":"East Midlands","type":"Village","formatted_address":"Swadlincote DE12 8AL, UK"},{"id":280,"name":"Acomb","county":"North Yorkshire","country":"England","grid_reference":"SE574513","easting":457419,"northing":451399,"lat":53.95551,"lng":-1.12647,"elevation":27,"postcode_sector":"YO24 4","local_government_area":"York","nuts_region":"Yorkshire and the Humber","type":"Suburban Area","formatted_address":"York Rd, York YO24 4NR, UK"},{"id":296,"name":"Acton","county":"Shropshire","country":"England","grid_reference":"SO313849","easting":331310,"northing":284971,"lat":52.45835,"lng":-3.01234,"elevation":168,"postcode_sector":"SY9 5","local_government_area":"Shropshire","nuts_region":"West Midlands","type":"Hamlet","formatted_address":"Acton, Bishops Castle SY9 5LA, UK"},{"id":1,"name":"Aaron's Hill","county":"Surrey","country":"England","grid_reference":"SU957435","easting":495783,"northing":143522,"lat":51.18291,"lng":-0.63098,"elevation":78,"postcode_sector":"GU7 2","local_government_area":"Waverley District","nuts_region":"South East","type":"Suburban Area","formatted_address":"Eashing Ln, Godalming GU7 2LB, UK"},{"id":292,"name":"Acton","county":"County Tyrone","country":"Northern Ireland","grid_reference":"H885640","easting":288576,"northing":364038,"lat":54.517,"lng":-6.633,"elevation":16,"postcode_sector":"BT71 4","local_government_area":"Mid Ulster","nuts_region":"Northern Ireland","type":"Locality","formatted_address":"Reenaderry Rd, Coalisland, Dungannon BT71 4QN, UK"},{"id":289,"name":"Acrise","county":"Kent","country":"England","grid_reference":"TR194423","easting":619488,"northing":142383,"lat":51.13863,"lng":1.13618,"elevation":151,"postcode_sector":"CT18 8","local_government_area":"Shepway District","nuts_region":"South East","type":"Hamlet","formatted_address":"Acrise, Folkestone CT18 8LH, UK"},{"id":294,"name":"Acton","county":"Greater London","country":"England","grid_reference":"TQ202800","easting":520280,"northing":180066,"lat":51.50673,"lng":-0.26831,"elevation":23,"postcode_sector":"W3 6","local_government_area":"Ealing","nuts_region":"London","type":"Locality","formatted_address":"High St, London W3 6QX, UK"},