[
  {
    "id": 1,
    "name": "Aaron's Hill",
    "county": "Surrey",
    "country": "England",
    "grid_reference": "SU957435",
    "easting": 495783,
    "northing": 143522,
    "latitude": 51.18291,
    "longitude": -0.63098,
    "elevation": 78,
    "postcode_sector": "GU7 2",
    "local_government_area": "Waverley District",
    "nuts_region": "South East",
    "type": "Suburban Area"
  },
  {
    "id": 2,
    "name": "Abbas Combe",
    "county": "Somerset",
    "country": "England",
    "grid_reference": "ST707226",
    "easting": 370749,
    "northing": 122688,
    "latitude": 51.00283,
    "longitude": -2.41825,
    "elevation": 91,
    "postcode_sector": "BA8 0",
    "local_government_area": "South Somerset District",
    "nuts_region": "South West",
    "type": "Village"
  },
  {
    "id": 3,
    "name": "Abberley",
    "county": "Worcestershire",
    "country": "England",
    "grid_reference": "SO744675",
    "easting": 374477,
    "northing": 267522,
    "latitude": 52.30522,
    "longitude": -2.37574,
    "elevation": 152,
    "postcode_sector": "WR6 6",
    "local_government_area": "Malvern Hills District",
    "nuts_region": "West Midlands",
    "type": "Village"
  },
  {
    "id": 4,
    "name": "Abberton",
    "county": "Essex",
    "country": "England",
    "grid_reference": "TM006190",
    "easting": 600637,
    "northing": 219093,
    "latitude": 51.8344,
    "longitude": 0.91066,
    "elevation": 44,
    "postcode_sector": "CO5 7",
    "local_government_area": "Colchester District",
    "nuts_region": "Eastern",
    "type": "Village"
  },
  {
    "id": 5,
    "name": "Abberton",
    "county": "Worcestershire",
    "country": "England",
    "grid_reference": "SO995534",
    "easting": 399538,
    "northing": 253477,
    "latitude": 52.17955,
    "longitude": -2.00817,
    "elevation": 68,
    "postcode_sector": "WR10 2",
    "local_government_area": "Wychavon District",
    "nuts_region": "West Midlands",
    "type": "Hamlet"
  },
  {
    "id": 6,
    "name": "Abberwick",
    "county": "Northumberland",
    "country": "England",
    "grid_reference": "NU129132",
    "easting": 412938,
    "northing": 613277,
    "latitude": 55.41325,
    "longitude": -1.7972,
    "elevation": 93,
    "postcode_sector": "NE66 2",
    "local_government_area": "Northumberland",
    "nuts_region": "North East",
    "type": "Locality"
  },
  {
    "id": 7,
    "name": "Abbess End",
    "county": "Essex",
    "country": "England",
    "grid_reference": "TL575115",
    "easting": 557500,
    "northing": 211500,
    "latitude": 51.78,
    "longitude": 0.28172,
    "elevation": 75,
    "postcode_sector": "CM5 0",
    "local_government_area": "Epping Forest District",
    "nuts_region": "Eastern",
    "type": "Locality"
  },
  {
    "id": 8,
    "name": "Abbess Roding",
    "county": "Essex",
    "country": "England",
    "grid_reference": "TL571112",
    "easting": 557170,
    "northing": 211283,
    "latitude": 51.77815,
    "longitude": 0.27685,
    "elevation": 70,
    "postcode_sector": "CM5 0",
    "local_government_area": "Epping Forest District",
    "nuts_region": "Eastern",
    "type": "Village"
  },
  {
    "id": 9,
    "name": "Abbey",
    "county": "Devon",
    "country": "England",
    "grid_reference": "ST140106",
    "easting": 314090,
    "northing": 110654,
    "latitude": 50.88896,
    "longitude": -3.22276,
    "elevation": 160,
    "postcode_sector": "EX14 4",
    "local_government_area": "East Devon District",
    "nuts_region": "South West",
    "type": "Hamlet"
  },
  {
    "id": 10,
    "name": "Abbeycwmhir / Abaty Cwm-hir",
    "county": "Powys",
    "country": "Wales",
    "grid_reference": "SO053712",
    "easting": 305386,
    "northing": 271238,
    "latitude": 52.33104,
    "longitude": -3.38988,
    "elevation": 266,
    "postcode_sector": "LD1 6",
    "local_government_area": "Powys",
    "nuts_region": "Wales",
    "type": "Hamlet"
  },
  {
    "id": 11,
    "name": "Abbeydale",
    "county": "Gloucestershire",
    "country": "England",
    "grid_reference": "SO863164",
    "easting": 386373,
    "northing": 216413,
    "latitude": 51.84615,
    "longitude": -2.19922,
    "elevation": 47,
    "postcode_sector": "GL4 4",
    "local_government_area": "Gloucester District",
    "nuts_region": "South West",
    "type": "Suburban Area"
  },
  {
    "id": 12,
    "name": "Abbeydale",
    "county": "South Yorkshire",
    "country": "England",
    "grid_reference": "SK327822",
    "easting": 432719,
    "northing": 382237,
    "latitude": 53.33603,
    "longitude": -1.51011,
    "elevation": 112,
    "postcode_sector": "S8 0",
    "local_government_area": "Sheffield District",
    "nuts_region": "Yorkshire and the Humber",
    "type": "Suburban Area"
  },
  {
    "id": 13,
    "name": "Abbeydale",
    "county": "Worcestershire",
    "country": "England",
    "grid_reference": "SP051681",
    "easting": 405102,
    "northing": 268179,
    "latitude": 52.3117,
    "longitude": -1.92659,
    "elevation": 90,
    "postcode_sector": "B98 8",
    "local_government_area": "Redditch District",
    "nuts_region": "West Midlands",
    "type": "Suburban Area"
  },
  {
    "id": 14,
    "name": "Abbeydale Park",
    "county": "South Yorkshire",
    "country": "England",
    "grid_reference": "SK317807",
    "easting": 431711,
    "northing": 380770,
    "latitude": 53.32291,
    "longitude": -1.52539,
    "elevation": 143,
    "postcode_sector": "S17 3",
    "local_government_area": "Sheffield District",
    "nuts_region": "Yorkshire and the Humber",
    "type": "Suburban Area"
  },
  {
    "id": 15,
    "name": "Abbey Dore",
    "county": "Herefordshire",
    "country": "England",
    "grid_reference": "SO385304",
    "easting": 338538,
    "northing": 230489,
    "latitude": 51.96946,
    "longitude": -2.89607,
    "elevation": 93,
    "postcode_sector": "HR2 0",
    "local_government_area": "County of Herefordshire",
    "nuts_region": "West Midlands",
    "type": "Village"
  },
  {
    "id": 16,
    "name": "Abbey End",
    "county": "Warwickshire",
    "country": "England",
    "grid_reference": "SP286718",
    "easting": 428680,
    "northing": 271865,
    "latitude": 52.34412,
    "longitude": -1.58043,
    "elevation": 92,
    "postcode_sector": "CV8 1",
    "local_government_area": "Warwick District",
    "nuts_region": "West Midlands",
    "type": "Suburban Area"
  },
  {
    "id": 17,
    "name": "Abbey Field",
    "county": "Essex",
    "country": "England",
    "grid_reference": "TL995245",
    "easting": 599500,
    "northing": 224500,
    "latitude": 51.88336,
    "longitude": 0.8973,
    "elevation": 38,
    "postcode_sector": "CO2 7",
    "local_government_area": "Colchester District",
    "nuts_region": "Eastern",
    "type": "Locality"
  },
  {
    "id": 18,
    "name": "Abbey Fields",
    "county": "Warwickshire",
    "country": "England",
    "grid_reference": "SP283719",
    "easting": 428370,
    "northing": 271950,
    "latitude": 52.3449,
    "longitude": -1.58497,
    "elevation": 81,
    "postcode_sector": "CV8 1",
    "local_government_area": "Warwick District",
    "nuts_region": "West Midlands",
    "type": "Suburban Area"
  },
  {
    "id": 19,
    "name": "Abbey Gate",
    "county": "Devon",
    "country": "England",
    "grid_reference": "SY295975",
    "easting": 329500,
    "northing": 97500,
    "latitude": 50.77278,
    "longitude": -3.00118,
    "elevation": 55,
    "postcode_sector": "EX13 5",
    "local_government_area": "East Devon District",
    "nuts_region": "South West",
    "type": "Locality"
  },
  {
    "id": 20,
    "name": "Abbey Green",
    "county": "Shropshire",
    "country": "England",
    "grid_reference": "SJ506331",
    "easting": 350666,
    "northing": 333195,
    "latitude": 52.89393,
    "longitude": -2.73475,
    "elevation": 102,
    "postcode_sector": "SY13 2",
    "local_government_area": "Shropshire",
    "nuts_region": "West Midlands",
    "type": "Hamlet"
  },
  {
    "id": 21,
    "name": "Abbey Green",
    "county": "Staffordshire",
    "country": "England",
    "grid_reference": "SJ979577",
    "easting": 397900,
    "northing": 357773,
    "latitude": 53.11713,
    "longitude": -2.03283,
    "elevation": 174,
    "postcode_sector": "ST13 8",
    "local_government_area": "Staffordshire Moorlands District",
    "nuts_region": "West Midlands",
    "type": "Hamlet"
  },
  {
    "id": 22,
    "name": "Abbey Hey",
    "county": "Greater Manchester",
    "country": "England",
    "grid_reference": "SJ895965",
    "easting": 389500,
    "northing": 396500,
    "latitude": 53.46514,
    "longitude": -2.15963,
    "elevation": 87,
    "postcode_sector": "M18 8",
    "local_government_area": "Manchester District",
    "nuts_region": "North West",
    "type": "Locality"
  },
  {
    "id": 23,
    "name": "Abbeyhill",
    "county": "City of Edinburgh",
    "country": "Scotland",
    "grid_reference": "NT270744",
    "easting": 327066,
    "northing": 674436,
    "latitude": 55.95738,
    "longitude": -3.1697,
    "elevation": 40,
    "postcode_sector": "EH7 5",
    "local_government_area": "City of Edinburgh",
    "nuts_region": "Scotland",
    "type": "Suburban Area"
  },
  {
    "id": 24,
    "name": "Abbey Hulton",
    "county": "Staffordshire",
    "country": "England",
    "grid_reference": "SJ907486",
    "easting": 390708,
    "northing": 348651,
    "latitude": 53.03506,
    "longitude": -2.14002,
    "elevation": 136,
    "postcode_sector": "ST2 8",
    "local_government_area": "City of Stoke-on-Trent",
    "nuts_region": "West Midlands",
    "type": "Suburban Area"
  },
  {
    "id": 25,
    "name": "Abbey Mead",
    "county": "Surrey",
    "country": "England",
    "grid_reference": "TQ045675",
    "easting": 504500,
    "northing": 167500,
    "latitude": 51.39692,
    "longitude": -0.49929,
    "elevation": 14,
    "postcode_sector": "KT16 8",
    "local_government_area": "Runnymede District",
    "nuts_region": "South East",
    "type": "Locality"
  },
  {
    "id": 26,
    "name": "Abbey Meads",
    "county": "Wiltshire",
    "country": "England",
    "grid_reference": "SU141891",
    "easting": 414197,
    "northing": 189131,
    "latitude": 51.60084,
    "longitude": -1.79642,
    "elevation": 107,
    "postcode_sector": "SN25 4",
    "local_government_area": "Swindon",
    "nuts_region": "South West",
    "type": "Suburban Area"
  },
  {
    "id": 27,
    "name": "Abbey Parks",
    "county": "Fife",
    "country": "Scotland",
    "grid_reference": "NT091873",
    "easting": 309108,
    "northing": 687303,
    "latitude": 56.06989,
    "longitude": -3.46159,
    "elevation": 89,
    "postcode_sector": "KY12 7",
    "local_government_area": "Fife",
    "nuts_region": "Scotland",
    "type": "Suburban Area"
  },
  {
    "id": 28,
    "name": "Abbey St Bathans",
    "county": "Berwickshire",
    "country": "Scotland",
    "grid_reference": "NT762618",
    "easting": 376241,
    "northing": 661858,
    "latitude": 55.84934,
    "longitude": -2.38104,
    "elevation": 148,
    "postcode_sector": "TD11 3",
    "local_government_area": "Scottish Borders",
    "nuts_region": "Scotland",
    "type": "Hamlet"
  },
  {
    "id": 29,
    "name": "Abbeystead",
    "county": "Lancashire",
    "country": "England",
    "grid_reference": "SD563543",
    "easting": 356356,
    "northing": 454382,
    "latitude": 53.98364,
    "longitude": -2.66703,
    "elevation": 115,
    "postcode_sector": "LA2 9",
    "local_government_area": "Lancaster District",
    "nuts_region": "North West",
    "type": "Hamlet"
  },
  {
    "id": 30,
    "name": "Abbeytown",
    "county": "Cumbria",
    "country": "England",
    "grid_reference": "NY172507",
    "easting": 317279,
    "northing": 550746,
    "latitude": 54.84466,
    "longitude": -3.2897,
    "elevation": 14,
    "postcode_sector": "CA7 4",
    "local_government_area": "Allerdale District",
    "nuts_region": "North West",
    "type": "Village"
  },
  {
    "id": 31,
    "name": "Abbey Village",
    "county": "Lancashire",
    "country": "England",
    "grid_reference": "SD640227",
    "easting": 364054,
    "northing": 422764,
    "latitude": 53.70007,
    "longitude": -2.54594,
    "elevation": 161,
    "postcode_sector": "PR6 8",
    "local_government_area": "Chorley District",
    "nuts_region": "North West",
    "type": "Village"
  },
  {
    "id": 32,
    "name": "Abbey Wood",
    "county": "Greater London",
    "country": "England",
    "grid_reference": "TQ464789",
    "easting": 546447,
    "northing": 178983,
    "latitude": 51.49083,
    "longitude": 0.10803,
    "elevation": 4,
    "postcode_sector": "SE2 9",
    "local_government_area": "Greenwich",
    "nuts_region": "London",
    "type": "Suburban Area"
  },
  {
    "id": 33,
    "name": "Abbey Yard",
    "county": "The Stewartry of Kirkcudbright",
    "country": "Scotland",
    "grid_reference": "NX735645",
    "easting": 273500,
    "northing": 564500,
    "latitude": 54.95903,
    "longitude": -3.97713,
    "elevation": 50,
    "postcode_sector": "DG7 2",
    "local_government_area": "Dumfries and Galloway",
    "nuts_region": "Scotland",
    "type": "Locality"
  },
  {
    "id": 34,
    "name": "Abbotrule",
    "county": "Roxburgh, Ettrick and Lauderdale",
    "country": "Scotland",
    "grid_reference": "NT609130",
    "easting": 360910,
    "northing": 613000,
    "latitude": 55.40936,
    "longitude": -2.61892,
    "elevation": 169,
    "postcode_sector": "TD9 8",
    "local_government_area": "Scottish Borders",
    "nuts_region": "Scotland",
    "type": "Locality"
  },
  {
    "id": 35,
    "name": "Abbots Bickington",
    "county": "Devon",
    "country": "England",
    "grid_reference": "SS384134",
    "easting": 238400,
    "northing": 113405,
    "latitude": 50.89745,
    "longitude": -4.29936,
    "elevation": 164,
    "postcode_sector": "EX22 7",
    "local_government_area": "Torridge District",
    "nuts_region": "South West",
    "type": "Hamlet"
  },
  {
    "id": 36,
    "name": "Abbots Bromley",
    "county": "Staffordshire",
    "country": "England",
    "grid_reference": "SK083244",
    "easting": 408370,
    "northing": 324413,
    "latitude": 52.81719,
    "longitude": -1.87725,
    "elevation": 119,
    "postcode_sector": "WS15 3",
    "local_government_area": "East Staffordshire District",
    "nuts_region": "West Midlands",
    "type": "Village"
  },
  {
    "id": 37,
    "name": "Abbotsbury",
    "county": "Devon",
    "country": "England",
    "grid_reference": "SX858715",
    "easting": 285818,
    "northing": 71596,
    "latitude": 50.53296,
    "longitude": -3.61246,
    "elevation": 21,
    "postcode_sector": "TQ12 2",
    "local_government_area": "Teignbridge District",
    "nuts_region": "South West",
    "type": "Suburban Area"
  },
  {
    "id": 38,
    "name": "Abbotsbury",
    "county": "Dorset",
    "country": "England",
    "grid_reference": "SY577852",
    "easting": 357725,
    "northing": 85274,
    "latitude": 50.66559,
    "longitude": -2.59953,
    "elevation": 43,
    "postcode_sector": "DT3 4",
    "local_government_area": "West Dorset District",
    "nuts_region": "South West",
    "type": "Village"
  },
  {
    "id": 39,
    "name": "Abbotsford",
    "county": "West Sussex",
    "country": "England",
    "grid_reference": "TQ303209",
    "easting": 530382,
    "northing": 120922,
    "latitude": 50.97296,
    "longitude": -0.14434,
    "elevation": 29,
    "postcode_sector": "RH15 8",
    "local_government_area": "Mid Sussex District",
    "nuts_region": "South East",
    "type": "Hamlet"
  },
  {
    "id": 40,
    "name": "Abbotsham",
    "county": "Devon",
    "country": "England",
    "grid_reference": "SS424264",
    "easting": 242457,
    "northing": 126488,
    "latitude": 51.01613,
    "longitude": -4.24738,
    "elevation": 61,
    "postcode_sector": "EX39 5",
    "local_government_area": "Torridge District",
    "nuts_region": "South West",
    "type": "Village"
  },
  {
    "id": 41,
    "name": "Abbotside",
    "county": "Gloucestershire",
    "country": "England",
    "grid_reference": "ST687906",
    "easting": 368783,
    "northing": 190617,
    "latitude": 51.61351,
    "longitude": -2.45223,
    "elevation": 66,
    "postcode_sector": "GL12 8",
    "local_government_area": "South Gloucestershire",
    "nuts_region": "South West",
    "type": "Locality"
  },
  {
    "id": 42,
    "name": "Abbotskerswell",
    "county": "Devon",
    "country": "England",
    "grid_reference": "SX856687",
    "easting": 285694,
    "northing": 68785,
    "latitude": 50.50767,
    "longitude": -3.61335,
    "elevation": 31,
    "postcode_sector": "TQ12 5",
    "local_government_area": "Teignbridge District",
    "nuts_region": "South West",
    "type": "Village"
  },
  {
    "id": 43,
    "name": "Abbots Langley",
    "county": "Hertfordshire",
    "country": "England",
    "grid_reference": "TL094019",
    "easting": 509444,
    "northing": 201966,
    "latitude": 51.70577,
    "longitude": -0.41754,
    "elevation": 128,
    "postcode_sector": "WD5 0",
    "local_government_area": "Three Rivers District",
    "nuts_region": "Eastern",
    "type": "Village"
  },
  {
    "id": 44,
    "name": "Abbots Leigh",
    "county": "Somerset",
    "country": "England",
    "grid_reference": "ST537737",
    "easting": 353799,
    "northing": 173737,
    "latitude": 51.46071,
    "longitude": -2.6664,
    "elevation": 86,
    "postcode_sector": "BS8 3",
    "local_government_area": "North Somerset",
    "nuts_region": "South West",
    "type": "Village"
  },
  {
    "id": 45,
    "name": "Abbotsley",
    "county": "Cambridgeshire",
    "country": "England",
    "grid_reference": "TL229565",
    "easting": 522933,
    "northing": 256521,
    "latitude": 52.19323,
    "longitude": -0.20294,
    "elevation": 45,
    "postcode_sector": "PE19 6",
    "local_government_area": "Huntingdonshire District",
    "nuts_region": "Eastern",
    "type": "Village"
  },
  {
    "id": 46,
    "name": "Abbotsmead",
    "county": "Cumbria",
    "country": "England",
    "grid_reference": "SD215695",
    "easting": 321568,
    "northing": 469564,
    "latitude": 54.11594,
    "longitude": -3.20135,
    "elevation": 22,
    "postcode_sector": "LA13 0",
    "local_government_area": "Barrow-in-Furness District",
    "nuts_region": "North West",
    "type": "Suburban Area"
  },
  {
    "id": 47,
    "name": "Abbot's Mead",
    "county": "Cheshire",
    "country": "England",
    "grid_reference": "SJ398681",
    "easting": 339886,
    "northing": 368119,
    "latitude": 53.20672,
    "longitude": -2.90149,
    "elevation": 8,
    "postcode_sector": "CH1 4",
    "local_government_area": "Cheshire West and Chester",
    "nuts_region": "North West",
    "type": "Suburban Area"
  },
  {
    "id": 48,
    "name": "Abbot's Meads",
    "county": "Cheshire",
    "country": "England",
    "grid_reference": "SJ395675",
    "easting": 339500,
    "northing": 367500,
    "latitude": 53.20112,
    "longitude": -2.90716,
    "elevation": 7,
    "postcode_sector": "CH1 5",
    "local_government_area": "Cheshire West and Chester",
    "nuts_region": "North West",
    "type": "Locality"
  },
  {
    "id": 49,
    "name": "Abbots Morton",
    "county": "Worcestershire",
    "country": "England",
    "grid_reference": "SP028550",
    "easting": 402806,
    "northing": 255084,
    "latitude": 52.19399,
    "longitude": -1.96037,
    "elevation": 67,
    "postcode_sector": "WR7 4",
    "local_government_area": "Wychavon District",
    "nuts_region": "West Midlands",
    "type": "Village"
  },
  {
    "id": 50,
    "name": "Abbots Ripton",
    "county": "Cambridgeshire",
    "country": "England",
    "grid_reference": "TL230781",
    "easting": 523054,
    "northing": 278110,
    "latitude": 52.3872,
    "longitude": -0.19329,
    "elevation": 42,
    "postcode_sector": "PE28 2",
    "local_government_area": "Huntingdonshire District",
    "nuts_region": "Eastern",
    "type": "Village"
  },
  {
    "id": 51,
    "name": "Abbot's Salford",
    "county": "Warwickshire",
    "country": "England",
    "grid_reference": "SP068502",
    "easting": 406865,
    "northing": 250286,
    "latitude": 52.15082,
    "longitude": -1.90108,
    "elevation": 34,
    "postcode_sector": "WR11 8",
    "local_government_area": "Stratford-on-Avon District",
    "nuts_region": "West Midlands",
    "type": "Village"
  },
  {
    "id": 52,
    "name": "Abbotstone",
    "county": "Hampshire",
    "country": "England",
    "grid_reference": "SU563345",
    "easting": 456309,
    "northing": 134523,
    "latitude": 51.10725,
    "longitude": -1.19707,
    "elevation": 66,
    "postcode_sector": "SO24 9",
    "local_government_area": "Winchester District",
    "nuts_region": "South East",
    "type": "Hamlet"
  },
  {
    "id": 53,
    "name": "Abbotswood",
    "county": "Hampshire",
    "country": "England",
    "grid_reference": "SU361234",
    "easting": 436115,
    "northing": 123445,
    "latitude": 51.00926,
    "longitude": -1.4866,
    "elevation": 37,
    "postcode_sector": "SO51 7",
    "local_government_area": "Test Valley District",
    "nuts_region": "South East",
    "type": "Village"
  },
  {
    "id": 54,
    "name": "Abbotswood",
    "county": "Surrey",
    "country": "England",
    "grid_reference": "TQ008513",
    "easting": 500853,
    "northing": 151305,
    "latitude": 51.25201,
    "longitude": -0.55628,
    "elevation": 48,
    "postcode_sector": "GU1 1",
    "local_government_area": "Guildford District",
    "nuts_region": "South East",
    "type": "Suburban Area"
  },
  {
    "id": 55,
    "name": "Abbotswood",
    "county": "Worcestershire",
    "country": "England",
    "grid_reference": "SO889492",
    "easting": 388916,
    "northing": 249266,
    "latitude": 52.14157,
    "longitude": -2.16338,
    "elevation": 46,
    "postcode_sector": "WR5 3",
    "local_government_area": "Wychavon District",
    "nuts_region": "West Midlands",
    "type": "Hamlet"
  },
  {
    "id": 56,
    "name": "Abbots Worthy",
    "county": "Hampshire",
    "country": "England",
    "grid_reference": "SU497326",
    "easting": 449752,
    "northing": 132684,
    "latitude": 51.09132,
    "longitude": -1.29097,
    "elevation": 53,
    "postcode_sector": "SO21 1",
    "local_government_area": "Winchester District",
    "nuts_region": "South East",
    "type": "Village"
  },
  {
    "id": 57,
    "name": "Abbotts Ann",
    "county": "Hampshire",
    "country": "England",
    "grid_reference": "SU328435",
    "easting": 432844,
    "northing": 143599,
    "latitude": 51.19068,
    "longitude": -1.5314,
    "elevation": 62,
    "postcode_sector": "SP11 7",
    "local_government_area": "Test Valley District",
    "nuts_region": "South East",
    "type": "Village"
  },
  {
    "id": 58,
    "name": "Abbotts Barton",
    "county": "Hampshire",
    "country": "England",
    "grid_reference": "SU481308",
    "easting": 448185,
    "northing": 130848,
    "latitude": 51.07494,
    "longitude": -1.31359,
    "elevation": 69,
    "postcode_sector": "SO23 7",
    "local_government_area": "Winchester District",
    "nuts_region": "South East",
    "type": "Suburban Area"
  },
  {
    "id": 59,
    "name": "Abcott",
    "county": "Shropshire",
    "country": "England",
    "grid_reference": "SO391786",
    "easting": 339121,
    "northing": 278600,
    "latitude": 52.40201,
    "longitude": -2.89624,
    "elevation": 135,
    "postcode_sector": "SY7 0",
    "local_government_area": "Shropshire",
    "nuts_region": "West Midlands",
    "type": "Hamlet"
  },
  {
    "id": 60,
    "name": "Abdon",
    "county": "Shropshire",
    "country": "England",
    "grid_reference": "SO574863",
    "easting": 357407,
    "northing": 286349,
    "latitude": 52.4734,
    "longitude": -2.62848,
    "elevation": 251,
    "postcode_sector": "SY7 9",
    "local_government_area": "Shropshire",
    "nuts_region": "West Midlands",
    "type": "Hamlet"
  },
  {
    "id": 61,
    "name": "Abdy",
    "county": "South Yorkshire",
    "country": "England",
    "grid_reference": "SK435985",
    "easting": 443500,
    "northing": 398500,
    "latitude": 53.48143,
    "longitude": -1.34598,
    "elevation": 71,
    "postcode_sector": "S62 7",
    "local_government_area": "Rotherham District",
    "nuts_region": "Yorkshire and the Humber",
    "type": "Locality"
  },
  {
    "id": 62,
    "name": "Abenhall",
    "county": "Gloucestershire",
    "country": "England",
    "grid_reference": "SO669173",
    "easting": 366974,
    "northing": 217339,
    "latitude": 51.85366,
    "longitude": -2.4809,
    "elevation": 154,
    "postcode_sector": "GL17 0",
    "local_government_area": "Forest of Dean District",
    "nuts_region": "South West",
    "type": "Locality"
  },
  {
    "id": 63,
    "name": "Aber",
    "county": "Dyfed",
    "country": "Wales",
    "grid_reference": "SN477484",
    "easting": 247713,
    "northing": 248429,
    "latitude": 52.11315,
    "longitude": -4.22539,
    "elevation": 201,
    "postcode_sector": "SA40 9",
    "local_government_area": "Ceredigion / Sir Ceredigion",
    "nuts_region": "Wales",
    "type": "Hamlet"
  },
  {
    "id": 64,
    "name": "Aber",
    "county": "Powys",
    "country": "Wales",
    "grid_reference": "SO105213",
    "easting": 310511,
    "northing": 221379,
    "latitude": 51.88376,
    "longitude": -3.30157,
    "elevation": 162,
    "postcode_sector": "LD3 7",
    "local_government_area": "Powys",
    "nuts_region": "Wales",
    "type": "Hamlet"
  },
  {
    "id": 65,
    "name": "Aberaeron",
    "county": "Dyfed",
    "country": "Wales",
    "grid_reference": "SN458628",
    "easting": 245842,
    "northing": 262858,
    "latitude": 52.24226,
    "longitude": -4.25925,
    "elevation": 6,
    "postcode_sector": "SA46 0",
    "local_government_area": "Ceredigion / Sir Ceredigion",
    "nuts_region": "Wales",
    "type": "Town"
  },
  {
    "id": 66,
    "name": "Aberaman",
    "county": "Mid Glamorgan",
    "country": "Wales",
    "grid_reference": "SO012013",
    "easting": 301296,
    "northing": 201300,
    "latitude": 51.70173,
    "longitude": -3.42969,
    "elevation": 139,
    "postcode_sector": "CF44 6",
    "local_government_area": "Rhondda Cynon Taf",
    "nuts_region": "Wales",
    "type": "Suburban Area"
  },
  {
    "id": 67,
    "name": "Aberangell",
    "county": "Gwynedd",
    "country": "Wales",
    "grid_reference": "SH843103",
    "easting": 284380,
    "northing": 310311,
    "latitude": 52.67812,
    "longitude": -3.7116,
    "elevation": 84,
    "postcode_sector": "SY20 9",
    "local_government_area": "Gwynedd",
    "nuts_region": "Wales",
    "type": "Village"
  },
  {
    "id": 68,
    "name": "Aber-Arad",
    "county": "Dyfed",
    "country": "Wales",
    "grid_reference": "SN315403",
    "easting": 231571,
    "northing": 240356,
    "latitude": 52.03596,
    "longitude": -4.45692,
    "elevation": 39,
    "postcode_sector": "SA38 9",
    "local_government_area": "Carmarthenshire / Sir Gaerfyrddin",
    "nuts_region": "Wales",
    "type": "Suburban Area"
  },
  {
    "id": 69,
    "name": "Aberarder",
    "county": "Inverness",
    "country": "Scotland",
    "grid_reference": "NN475875",
    "easting": 247500,
    "northing": 787500,
    "latitude": 56.95353,
    "longitude": -4.50913,
    "elevation": 291,
    "postcode_sector": "PH20 1",
    "local_government_area": "Highland",
    "nuts_region": "Scotland",
    "type": "Locality"
  },
  {
    "id": 70,
    "name": "Aberargie",
    "county": "Perth and Kinross",
    "country": "Scotland",
    "grid_reference": "NO161157",
    "easting": 316149,
    "northing": 715774,
    "latitude": 56.3269,
    "longitude": -3.35753,
    "elevation": 17,
    "postcode_sector": "PH2 9",
    "local_government_area": "Perth and Kinross",
    "nuts_region": "Scotland",
    "type": "Village"
  },
  {
    "id": 71,
    "name": "Aberarth",
    "county": "Dyfed",
    "country": "Wales",
    "grid_reference": "SN479636",
    "easting": 247989,
    "northing": 263665,
    "latitude": 52.25011,
    "longitude": -4.2282,
    "elevation": 23,
    "postcode_sector": "SA46 0",
    "local_government_area": "Ceredigion / Sir Ceredigion",
    "nuts_region": "Wales",
    "type": "Village"
  },
  {
    "id": 72,
    "name": "Aberavon",
    "county": "West Glamorgan",
    "country": "Wales",
    "grid_reference": "SS752898",
    "easting": 275272,
    "northing": 189812,
    "latitude": 51.59331,
    "longitude": -3.80199,
    "elevation": 10,
    "postcode_sector": "SA12 6",
    "local_government_area": "Neath Port Talbot / Castell-nedd Port Talbot",
    "nuts_region": "Wales",
    "type": "Suburban Area"
  },
  {
    "id": 73,
    "name": "Aber-banc",
    "county": "Dyfed",
    "country": "Wales",
    "grid_reference": "SN356417",
    "easting": 235610,
    "northing": 241747,
    "latitude": 52.04967,
    "longitude": -4.39876,
    "elevation": 83,
    "postcode_sector": "SA44 5",
    "local_government_area": "Ceredigion / Sir Ceredigion",
    "nuts_region": "Wales",
    "type": "Village"
  },
  {
    "id": 74,
    "name": "Aberbargoed / Aberbargod",
    "county": "Gwent",
    "country": "Wales",
    "grid_reference": "SO154001",
    "easting": 315484,
    "northing": 200147,
    "latitude": 51.69369,
    "longitude": -3.22416,
    "elevation": 211,
    "postcode_sector": "CF81 9",
    "local_government_area": "Caerphilly / Caerffili",
    "nuts_region": "Wales",
    "type": "Village"
  },
  {
    "id": 75,
    "name": "Aberbechan",
    "county": "Powys",
    "country": "Wales",
    "grid_reference": "SO136940",
    "easting": 313636,
    "northing": 294040,
    "latitude": 52.53735,
    "longitude": -3.27475,
    "elevation": 110,
    "postcode_sector": "SY16 3",
    "local_government_area": "Powys",
    "nuts_region": "Wales",
    "type": "Hamlet"
  },
  {
    "id": 76,
    "name": "Aberbeeg / Aber-big",
    "county": "Gwent",
    "country": "Wales",
    "grid_reference": "SO207019",
    "easting": 320776,
    "northing": 201907,
    "latitude": 51.71028,
    "longitude": -3.14801,
    "elevation": 160,
    "postcode_sector": "NP13 2",
    "local_government_area": "Blaenau Gwent",
    "nuts_region": "Wales",
    "type": "Village"
  },
  {
    "id": 77,
    "name": "Aberbran",
    "county": "Powys",
    "country": "Wales",
    "grid_reference": "SN984296",
    "easting": 298420,
    "northing": 229650,
    "latitude": 51.95603,
    "longitude": -3.47962,
    "elevation": 160,
    "postcode_sector": "LD3 9",
    "local_government_area": "Powys",
    "nuts_region": "Wales",
    "type": "Hamlet"
  },
  {
    "id": 78,
    "name": "Abercanaid",
    "county": "Mid Glamorgan",
    "country": "Wales",
    "grid_reference": "SO058036",
    "easting": 305851,
    "northing": 203644,
    "latitude": 51.72359,
    "longitude": -3.36443,
    "elevation": 156,
    "postcode_sector": "CF48 1",
    "local_government_area": "Merthyr Tydfil / Merthyr Tudful",
    "nuts_region": "Wales",
    "type": "Village"
  },
  {
    "id": 79,
    "name": "Abercarn",
    "county": "Gwent",
    "country": "Wales",
    "grid_reference": "ST215948",
    "easting": 321584,
    "northing": 194893,
    "latitude": 51.64734,
    "longitude": -3.13475,
    "elevation": 104,
    "postcode_sector": "NP11 5",
    "local_government_area": "Caerphilly / Caerffili",
    "nuts_region": "Wales",
    "type": "Town"
  },
  {
    "id": 80,
    "name": "Abercastle",
    "county": "Dyfed",
    "country": "Wales",
    "grid_reference": "SM854334",
    "easting": 185407,
    "northing": 233471,
    "latitude": 51.9582,
    "longitude": -5.12466,
    "elevation": 24,
    "postcode_sector": "SA62 5",
    "local_government_area": "Pembrokeshire / Sir Benfro",
    "nuts_region": "Wales",
    "type": "Hamlet"
  },
  {
    "id": 81,
    "name": "Abercegir",
    "county": "Powys",
    "country": "Wales",
    "grid_reference": "SH802017",
    "easting": 280291,
    "northing": 301751,
    "latitude": 52.60032,
    "longitude": -3.76894,
    "elevation": 62,
    "postcode_sector": "SY20 8",
    "local_government_area": "Powys",
    "nuts_region": "Wales",
    "type": "Village"
  },
  {
    "id": 82,
    "name": "Aberchalder",
    "county": "Inverness",
    "country": "Scotland",
    "grid_reference": "NH338036",
    "easting": 233863,
    "northing": 803610,
    "latitude": 57.09339,
    "longitude": -4.74371,
    "elevation": 34,
    "postcode_sector": "PH35 4",
    "local_government_area": "Highland",
    "nuts_region": "Scotland",
    "type": "Hamlet"
  },
  {
    "id": 83,
    "name": "Aberchirder",
    "county": "Banffshire",
    "country": "Scotland",
    "grid_reference": "NJ624524",
    "easting": 362477,
    "northing": 852418,
    "latitude": 57.56028,
    "longitude": -2.62878,
    "elevation": 146,
    "postcode_sector": "AB54 7",
    "local_government_area": "Aberdeenshire",
    "nuts_region": "Scotland",
    "type": "Town"
  },
  {
    "id": 84,
    "name": "Aber-Clydach",
    "county": "West Glamorgan",
    "country": "Wales",
    "grid_reference": "SN687012",
    "easting": 268787,
    "northing": 201233,
    "latitude": 51.69447,
    "longitude": -3.89984,
    "elevation": 26,
    "postcode_sector": "SA6 5",
    "local_government_area": "Swansea / Abertawe",
    "nuts_region": "Wales",
    "type": "Suburban Area"
  },
  {
    "id": 85,
    "name": "Abercorn",
    "county": "West Lothian",
    "country": "Scotland",
    "grid_reference": "NT082788",
    "easting": 308230,
    "northing": 678889,
    "latitude": 55.99415,
    "longitude": -3.47281,
    "elevation": 42,
    "postcode_sector": "EH30 9",
    "local_government_area": "West Lothian",
    "nuts_region": "Scotland",
    "type": "Hamlet"
  },
  {
    "id": 86,
    "name": "Abercrave / Abercraf",
    "county": "Powys",
    "country": "Wales",
    "grid_reference": "SN816126",
    "easting": 281684,
    "northing": 212634,
    "latitude": 51.7998,
    "longitude": -3.71722,
    "elevation": 132,
    "postcode_sector": "SA9 1",
    "local_government_area": "Powys",
    "nuts_region": "Wales",
    "type": "Village"
  },
  {
    "id": 87,
    "name": "Abercregan",
    "county": "West Glamorgan",
    "country": "Wales",
    "grid_reference": "SS850965",
    "easting": 285016,
    "northing": 196589,
    "latitude": 51.65629,
    "longitude": -3.66362,
    "elevation": 190,
    "postcode_sector": "SA13 3",
    "local_government_area": "Neath Port Talbot / Castell-nedd Port Talbot",
    "nuts_region": "Wales",
    "type": "Village"
  },
  {
    "id": 88,
    "name": "Abercrombie",
    "county": "Fife",
    "country": "Scotland",
    "grid_reference": "NO517028",
    "easting": 351785,
    "northing": 702846,
    "latitude": 56.21573,
    "longitude": -2.77899,
    "elevation": 36,
    "postcode_sector": "KY10 2",
    "local_government_area": "Fife",
    "nuts_region": "Scotland",
    "type": "Hamlet"
  },
  {
    "id": 89,
    "name": "Abercwmboi",
    "county": "Mid Glamorgan",
    "country": "Wales",
    "grid_reference": "ST025999",
    "easting": 302560,
    "northing": 199938,
    "latitude": 51.68971,
    "longitude": -3.41103,
    "elevation": 119,
    "postcode_sector": "CF44 6",
    "local_government_area": "Rhondda Cynon Taf",
    "nuts_region": "Wales",
    "type": "Suburban Area"
  },
  {
    "id": 90,
    "name": "Abercych",
    "county": "Dyfed",
    "country": "Wales",
    "grid_reference": "SN248408",
    "easting": 224855,
    "northing": 240894,
    "latitude": 52.03871,
    "longitude": -4.555,
    "elevation": 24,
    "postcode_sector": "SA37 0",
    "local_government_area": "Pembrokeshire / Sir Benfro",
    "nuts_region": "Wales",
    "type": "Village"
  },
  {
    "id": 91,
    "name": "Abercynon",
    "county": "Mid Glamorgan",
    "country": "Wales",
    "grid_reference": "ST081949",
    "easting": 308177,
    "northing": 194982,
    "latitude": 51.64611,
    "longitude": -3.32849,
    "elevation": 87,
    "postcode_sector": "CF45 4",
    "local_government_area": "Rhondda Cynon Taf",
    "nuts_region": "Wales",
    "type": "Town"
  },
  {
    "id": 92,
    "name": "Aber-Cywarch",
    "county": "Gwynedd",
    "country": "Wales",
    "grid_reference": "SH868157",
    "easting": 286844,
    "northing": 315774,
    "latitude": 52.72773,
    "longitude": -3.67705,
    "elevation": 102,
    "postcode_sector": "SY20 9",
    "local_government_area": "Gwynedd",
    "nuts_region": "Wales",
    "type": "Hamlet"
  },
  {
    "id": 93,
    "name": "Aberdalgie",
    "county": "Perth and Kinross",
    "country": "Scotland",
    "grid_reference": "NO078202",
    "easting": 307889,
    "northing": 720245,
    "latitude": 56.36552,
    "longitude": -3.49262,
    "elevation": 52,
    "postcode_sector": "PH2 0",
    "local_government_area": "Perth and Kinross",
    "nuts_region": "Scotland",
    "type": "Locality"
  },
  {
    "id": 94,
    "name": "Aberdare / Aberdâr",
    "county": "Mid Glamorgan",
    "country": "Wales",
    "grid_reference": "SO000026",
    "easting": 300072,
    "northing": 202640,
    "latitude": 51.71356,
    "longitude": -3.44778,
    "elevation": 131,
    "postcode_sector": "CF44 7",
    "local_government_area": "Rhondda Cynon Taf",
    "nuts_region": "Wales",
    "type": "Town"
  },
  {
    "id": 95,
    "name": "Aberdaron",
    "county": "Gwynedd",
    "country": "Wales",
    "grid_reference": "SH176271",
    "easting": 217624,
    "northing": 327107,
    "latitude": 52.81058,
    "longitude": -4.70736,
    "elevation": 42,
    "postcode_sector": "LL53 8",
    "local_government_area": "Gwynedd",
    "nuts_region": "Wales",
    "type": "Village"
  },
  {
    "id": 96,
    "name": "Aberdeen",
    "county": "City of Aberdeen",
    "country": "Scotland",
    "grid_reference": "NJ944065",
    "easting": 394426,
    "northing": 806556,
    "latitude": 57.14985,
    "longitude": -2.09376,
    "elevation": 19,
    "postcode_sector": "AB24 5",
    "local_government_area": "Aberdeen City",
    "nuts_region": "Scotland",
    "type": "City"
  },
  {
    "id": 97,
    "name": "Aberdesach",
    "county": "Gwynedd",
    "country": "Wales",
    "grid_reference": "SH425513",
    "easting": 242593,
    "northing": 351337,
    "latitude": 53.03608,
    "longitude": -4.34901,
    "elevation": 8,
    "postcode_sector": "LL54 5",
    "local_government_area": "Gwynedd",
    "nuts_region": "Wales",
    "type": "Village"
  },
  {
    "id": 98,
    "name": "Aberdour",
    "county": "Fife",
    "country": "Scotland",
    "grid_reference": "NT190853",
    "easting": 319018,
    "northing": 685305,
    "latitude": 56.05372,
    "longitude": -3.30185,
    "elevation": 34,
    "postcode_sector": "KY3 0",
    "local_government_area": "Fife",
    "nuts_region": "Scotland",
    "type": "Village"
  },
  {
    "id": 99,
    "name": "Aberdovey / Aberdyfi",
    "county": "Gwynedd",
    "country": "Wales",
    "grid_reference": "SN614959",
    "easting": 261463,
    "northing": 295975,
    "latitude": 52.54395,
    "longitude": -4.04434,
    "elevation": 3,
    "postcode_sector": "LL35 0",
    "local_government_area": "Gwynedd",
    "nuts_region": "Wales",
    "type": "Village"
  },
  {
    "id": 100,
    "name": "Aberdulais",
    "county": "West Glamorgan",
    "country": "Wales",
    "grid_reference": "SS773995",
    "easting": 277395,
    "northing": 199578,
    "latitude": 51.68154,
    "longitude": -3.77478,
    "elevation": 21,
    "postcode_sector": "SA10 8",
    "local_government_area": "Neath Port Talbot / Castell-nedd Port Talbot",
    "nuts_region": "Wales",
    "type": "Village"
  },
  {
    "id": 101,
    "name": "Aberedw",
    "county": "Powys",
    "country": "Wales",
    "grid_reference": "SO078473",
    "easting": 307871,
    "northing": 247394,
    "latitude": 52.11716,
    "longitude": -3.34692,
    "elevation": 136,
    "postcode_sector": "LD2 3",
    "local_government_area": "Powys",
    "nuts_region": "Wales",
    "type": "Village"
  },
  {
    "id": 102,
    "name": "Abereiddy",
    "county": "Dyfed",
    "country": "Wales",
    "grid_reference": "SM795315",
    "easting": 179500,
    "northing": 231500,
    "latitude": 51.9382,
    "longitude": -5.20922,
    "elevation": 9,
    "postcode_sector": "SA62 6",
    "local_government_area": "Pembrokeshire / Sir Benfro",
    "nuts_region": "Wales",
    "type": "Locality"
  },
  {
    "id": 103,
    "name": "Abererch",
    "county": "Gwynedd",
    "country": "Wales",
    "grid_reference": "SH398366",
    "easting": 239805,
    "northing": 336661,
    "latitude": 52.90344,
    "longitude": -4.38329,
    "elevation": 7,
    "postcode_sector": "LL53 6",
    "local_government_area": "Gwynedd",
    "nuts_region": "Wales",
    "type": "Village"
  },
  {
    "id": 104,
    "name": "Aberfan",
    "county": "Mid Glamorgan",
    "country": "Wales",
    "grid_reference": "SO070001",
    "easting": 307066,
    "northing": 200199,
    "latitude": 51.69282,
    "longitude": -3.34593,
    "elevation": 138,
    "postcode_sector": "CF48 4",
    "local_government_area": "Merthyr Tydfil / Merthyr Tudful",
    "nuts_region": "Wales",
    "type": "Village"
  },
  {
    "id": 105,
    "name": "Aberfeldy",
    "county": "Perth and Kinross",
    "country": "Scotland",
    "grid_reference": "NN854490",
    "easting": 285442,
    "northing": 749023,
    "latitude": 56.61901,
    "longitude": -3.86844,
    "elevation": 102,
    "postcode_sector": "PH15 2",
    "local_government_area": "Perth and Kinross",
    "nuts_region": "Scotland",
    "type": "Town"
  },
  {
    "id": 106,
    "name": "Aberffraw",
    "county": "Gwynedd",
    "country": "Wales",
    "grid_reference": "SH354688",
    "easting": 235423,
    "northing": 368872,
    "latitude": 53.1914,
    "longitude": -4.46484,
    "elevation": 16,
    "postcode_sector": "LL63 5",
    "local_government_area": "Isle of Anglesey / Sir Ynys Mon",
    "nuts_region": "Wales",
    "type": "Village"
  },
  {
    "id": 107,
    "name": "Aberffrwd",
    "county": "Dyfed",
    "country": "Wales",
    "grid_reference": "SN686788",
    "easting": 268649,
    "northing": 278832,
    "latitude": 52.39171,
    "longitude": -3.93168,
    "elevation": 63,
    "postcode_sector": "SY23 3",
    "local_government_area": "Ceredigion / Sir Ceredigion",
    "nuts_region": "Wales",
    "type": "Hamlet"
  },
  {
    "id": 108,
    "name": "Aberford",
    "county": "West Yorkshire",
    "country": "England",
    "grid_reference": "SE433372",
    "easting": 443343,
    "northing": 437258,
    "latitude": 53.82978,
    "longitude": -1.34296,
    "elevation": 43,
    "postcode_sector": "LS25 3",
    "local_government_area": "Leeds District",
    "nuts_region": "Yorkshire and the Humber",
    "type": "Village"
  },
  {
    "id": 109,
    "name": "Aberfoyle",
    "county": "Stirling and Falkirk",
    "country": "Scotland",
    "grid_reference": "NN524009",
    "easting": 252440,
    "northing": 700933,
    "latitude": 56.17811,
    "longitude": -4.37868,
    "elevation": 24,
    "postcode_sector": "FK8 3",
    "local_government_area": "Stirling",
    "nuts_region": "Scotland",
    "type": "Village"
  },
  {
    "id": 110,
    "name": "Abergarw",
    "county": "Mid Glamorgan",
    "country": "Wales",
    "grid_reference": "SS909850",
    "easting": 290937,
    "northing": 185066,
    "latitude": 51.5539,
    "longitude": -3.57447,
    "elevation": 71,
    "postcode_sector": "CF32 8",
    "local_government_area": "Bridgend / Pen-y-bont ar Ogwr",
    "nuts_region": "Wales",
    "type": "Suburban Area"
  },
  {
    "id": 111,
    "name": "Abergarwed",
    "county": "West Glamorgan",
    "country": "Wales",
    "grid_reference": "SN816023",
    "easting": 281657,
    "northing": 202384,
    "latitude": 51.70767,
    "longitude": -3.71412,
    "elevation": 32,
    "postcode_sector": "SA11 4",
    "local_government_area": "Neath Port Talbot / Castell-nedd Port Talbot",
    "nuts_region": "Wales",
    "type": "Village"
  },
  {
    "id": 112,
    "name": "Abergavenny / Y Fenni",
    "county": "Gwent",
    "country": "Wales",
    "grid_reference": "SO299141",
    "easting": 329906,
    "northing": 214193,
    "latitude": 51.82194,
    "longitude": -3.01838,
    "elevation": 65,
    "postcode_sector": "NP7 5",
    "local_government_area": "Monmouthshire / Sir Fynwy",
    "nuts_region": "Wales",
    "type": "Town"
  },
  {
    "id": 113,
    "name": "Abergeirw",
    "county": "Gwynedd",
    "country": "Wales",
    "grid_reference": "SH765283",
    "easting": 276582,
    "northing": 328304,
    "latitude": 52.83807,
    "longitude": -3.83366,
    "elevation": 288,
    "postcode_sector": "LL40 2",
    "local_government_area": "Gwynedd",
    "nuts_region": "Wales",
    "type": "Hamlet"
  },
  {
    "id": 114,
    "name": "Abergeldie",
    "county": "Aberdeenshire",
    "country": "Scotland",
    "grid_reference": "NO286950",
    "easting": 328648,
    "northing": 795098,
    "latitude": 57.04142,
    "longitude": -3.1775,
    "elevation": 265,
    "postcode_sector": "AB35 5",
    "local_government_area": "Aberdeenshire",
    "nuts_region": "Scotland",
    "type": "Hamlet"
  },
  {
    "id": 115,
    "name": "Abergele",
    "county": "Clwyd",
    "country": "Wales",
    "grid_reference": "SH945775",
    "easting": 294567,
    "northing": 377548,
    "latitude": 53.28438,
    "longitude": -3.58292,
    "elevation": 17,
    "postcode_sector": "LL22 7",
    "local_government_area": "Conwy",
    "nuts_region": "Wales",
    "type": "Town"
  },
  {
    "id": 116,
    "name": "Aber-Giâr",
    "county": "Dyfed",
    "country": "Wales",
    "grid_reference": "SN503410",
    "easting": 250363,
    "northing": 241094,
    "latitude": 52.04798,
    "longitude": -4.1835,
    "elevation": 144,
    "postcode_sector": "SA40 9",
    "local_government_area": "Carmarthenshire / Sir Gaerfyrddin",
    "nuts_region": "Wales",
    "type": "Hamlet"
  },
  {
    "id": 117,
    "name": "Abergorlech",
    "county": "Dyfed",
    "country": "Wales",
    "grid_reference": "SN584336",
    "easting": 258483,
    "northing": 233615,
    "latitude": 51.98292,
    "longitude": -4.06208,
    "elevation": 78,
    "postcode_sector": "SA32 7",
    "local_government_area": "Carmarthenshire / Sir Gaerfyrddin",
    "nuts_region": "Wales",
    "type": "Village"
  },
  {
    "id": 118,
    "name": "Abergwesyn",
    "county": "Powys",
    "country": "Wales",
    "grid_reference": "SN854527",
    "easting": 285477,
    "northing": 252748,
    "latitude": 52.16109,
    "longitude": -3.67564,
    "elevation": 263,
    "postcode_sector": "LD5 4",
    "local_government_area": "Powys",
    "nuts_region": "Wales",
    "type": "Hamlet"
  },
  {
    "id": 119,
    "name": "Abergwili",
    "county": "Dyfed",
    "country": "Wales",
    "grid_reference": "SN436213",
    "easting": 243659,
    "northing": 221326,
    "latitude": 51.86854,
    "longitude": -4.27218,
    "elevation": 8,
    "postcode_sector": "SA31 2",
    "local_government_area": "Carmarthenshire / Sir Gaerfyrddin",
    "nuts_region": "Wales",
    "type": "Village"
  },
  {
    "id": 120,
    "name": "Abergwynfi",
    "county": "West Glamorgan",
    "country": "Wales",
    "grid_reference": "SS893961",
    "easting": 289334,
    "northing": 196164,
    "latitude": 51.65334,
    "longitude": -3.60109,
    "elevation": 301,
    "postcode_sector": "SA13 3",
    "local_government_area": "Neath Port Talbot / Castell-nedd Port Talbot",
    "nuts_region": "Wales",
    "type": "Village"
  },
  {
    "id": 121,
    "name": "Abergwyngregyn",
    "county": "Gwynedd",
    "country": "Wales",
    "grid_reference": "SH655726",
    "easting": 265591,
    "northing": 372664,
    "latitude": 53.23395,
    "longitude": -4.01522,
    "elevation": 32,
    "postcode_sector": "LL33 0",
    "local_government_area": "Gwynedd",
    "nuts_region": "Wales",
    "type": "Village"
  },
  {
    "id": 122,
    "name": "Abergynolwyn",
    "county": "Gwynedd",
    "country": "Wales",
    "grid_reference": "SH677070",
    "easting": 267710,
    "northing": 307003,
    "latitude": 52.64459,
    "longitude": -3.95669,
    "elevation": 37,
    "postcode_sector": "LL36 9",
    "local_government_area": "Gwynedd",
    "nuts_region": "Wales",
    "type": "Village"
  },
  {
    "id": 123,
    "name": "Aberhafesp",
    "county": "Powys",
    "country": "Wales",
    "grid_reference": "SO068923",
    "easting": 306895,
    "northing": 292382,
    "latitude": 52.52133,
    "longitude": -3.37364,
    "elevation": 126,
    "postcode_sector": "SY16 3",
    "local_government_area": "Powys",
    "nuts_region": "Wales",
    "type": "Village"
  },
  {
    "id": 124,
    "name": "Aberhosan",
    "county": "Powys",
    "country": "Wales",
    "grid_reference": "SN811973",
    "easting": 281172,
    "northing": 297397,
    "latitude": 52.56139,
    "longitude": -3.75437,
    "elevation": 140,
    "postcode_sector": "SY20 8",
    "local_government_area": "Powys",
    "nuts_region": "Wales",
    "type": "Village"
  },
  {
    "id": 125,
    "name": "Aberkenfig / Abercynffig",
    "county": "Mid Glamorgan",
    "country": "Wales",
    "grid_reference": "SS893835",
    "easting": 289357,
    "northing": 183578,
    "latitude": 51.54022,
    "longitude": -3.59678,
    "elevation": 40,
    "postcode_sector": "CF32 9",
    "local_government_area": "Bridgend / Pen-y-bont ar Ogwr",
    "nuts_region": "Wales",
    "type": "Village"
  },
  {
    "id": 126,
    "name": "Aberlady",
    "county": "East Lothian",
    "country": "Scotland",
    "grid_reference": "NT465799",
    "easting": 346543,
    "northing": 679954,
    "latitude": 56.00952,
    "longitude": -2.8589,
    "elevation": 11,
    "postcode_sector": "EH32 0",
    "local_government_area": "East Lothian",
    "nuts_region": "Scotland",
    "type": "Village"
  },
  {
    "id": 127,
    "name": "Aberlemno",
    "county": "Angus",
    "country": "Scotland",
    "grid_reference": "NO521556",
    "easting": 352122,
    "northing": 755696,
    "latitude": 56.69053,
    "longitude": -2.78326,
    "elevation": 137,
    "postcode_sector": "DD8 3",
    "local_government_area": "Angus",
    "nuts_region": "Scotland",
    "type": "Hamlet"
  },
  {
    "id": 128,
    "name": "Aberlerry",
    "county": "Dyfed",
    "country": "Wales",
    "grid_reference": "SN605925",
    "easting": 260500,
    "northing": 292500,
    "latitude": 52.51249,
    "longitude": -4.05707,
    "elevation": 4,
    "postcode_sector": "SY24 5",
    "local_government_area": "Ceredigion / Sir Ceredigion",
    "nuts_region": "Wales",
    "type": "Locality"
  },
  {
    "id": 129,
    "name": "Aberllefenni",
    "county": "Gwynedd",
    "country": "Wales",
    "grid_reference": "SH770099",
    "easting": 277057,
    "northing": 309983,
    "latitude": 52.67356,
    "longitude": -3.81973,
    "elevation": 115,
    "postcode_sector": "SY20 9",
    "local_government_area": "Gwynedd",
    "nuts_region": "Wales",
    "type": "Village"
  },
  {
    "id": 130,
    "name": "Abermagwr",
    "county": "Dyfed",
    "country": "Wales",
    "grid_reference": "SN665738",
    "easting": 266566,
    "northing": 273809,
    "latitude": 52.34607,
    "longitude": -3.96027,
    "elevation": 55,
    "postcode_sector": "SY23 4",
    "local_government_area": "Ceredigion / Sir Ceredigion",
    "nuts_region": "Wales",
    "type": "Hamlet"
  },
  {
    "id": 131,
    "name": "Abermeurig",
    "county": "Dyfed",
    "country": "Wales",
    "grid_reference": "SN560559",
    "easting": 256015,
    "northing": 255978,
    "latitude": 52.1832,
    "longitude": -4.10744,
    "elevation": 101,
    "postcode_sector": "SA48 8",
    "local_government_area": "Ceredigion / Sir Ceredigion",
    "nuts_region": "Wales",
    "type": "Hamlet"
  },
  {
    "id": 132,
    "name": "Abermorddu / Yr Hôb",
    "county": "Clwyd",
    "country": "Wales",
    "grid_reference": "SJ308568",
    "easting": 330888,
    "northing": 356836,
    "latitude": 53.10422,
    "longitude": -3.03375,
    "elevation": 93,
    "postcode_sector": "LL12 9",
    "local_government_area": "Flintshire / Sir y Fflint",
    "nuts_region": "Wales",
    "type": "Village"
  },
  {
    "id": 133,
    "name": "Abermorlais",
    "county": "Mid Glamorgan",
    "country": "Wales",
    "grid_reference": "SO047064",
    "easting": 304732,
    "northing": 206492,
    "latitude": 51.749,
    "longitude": -3.38141,
    "elevation": 182,
    "postcode_sector": "CF47 8",
    "local_government_area": "Merthyr Tydfil / Merthyr Tudful",
    "nuts_region": "Wales",
    "type": "Suburban Area"
  },
  {
    "id": 134,
    "name": "Abermule / Aber-miwl",
    "county": "Powys",
    "country": "Wales",
    "grid_reference": "SO162947",
    "easting": 316229,
    "northing": 294751,
    "latitude": 52.54414,
    "longitude": -3.23671,
    "elevation": 95,
    "postcode_sector": "SY15 6",
    "local_government_area": "Powys",
    "nuts_region": "Wales",
    "type": "Village"
  },
  {
    "id": 135,
    "name": "Abernant",
    "county": "Dyfed",
    "country": "Wales",
    "grid_reference": "SN340232",
    "easting": 234045,
    "northing": 223210,
    "latitude": 51.88269,
    "longitude": -4.41259,
    "elevation": 95,
    "postcode_sector": "SA33 5",
    "local_government_area": "Carmarthenshire / Sir Gaerfyrddin",
    "nuts_region": "Wales",
    "type": "Hamlet"
  },
  {
    "id": 136,
    "name": "Abernant",
    "county": "Mid Glamorgan",
    "country": "Wales",
    "grid_reference": "SO008032",
    "easting": 300898,
    "northing": 203257,
    "latitude": 51.71925,
    "longitude": -3.43601,
    "elevation": 157,
    "postcode_sector": "CF44 0",
    "local_government_area": "Rhondda Cynon Taf",
    "nuts_region": "Wales",
    "type": "Suburban Area"
  },
  {
    "id": 137,
    "name": "Abernethy",
    "county": "Perth and Kinross",
    "country": "Scotland",
    "grid_reference": "NO190163",
    "easting": 319013,
    "northing": 716355,
    "latitude": 56.33262,
    "longitude": -3.31141,
    "elevation": 38,
    "postcode_sector": "PH2 9",
    "local_government_area": "Perth and Kinross",
    "nuts_region": "Scotland",
    "type": "Village"
  },
  {
    "id": 138,
    "name": "Abernyte",
    "county": "Perth and Kinross",
    "country": "Scotland",
    "grid_reference": "NO258312",
    "easting": 325856,
    "northing": 731224,
    "latitude": 56.46729,
    "longitude": -3.20498,
    "elevation": 117,
    "postcode_sector": "PH14 9",
    "local_government_area": "Perth and Kinross",
    "nuts_region": "Scotland",
    "type": "Village"
  },
  {
    "id": 139,
    "name": "Aber-oer",
    "county": "Clwyd",
    "country": "Wales",
    "grid_reference": "SJ285490",
    "easting": 328516,
    "northing": 349006,
    "latitude": 53.03354,
    "longitude": -3.06743,
    "elevation": 183,
    "postcode_sector": "LL14 4",
    "local_government_area": "Wrexham / Wrecsam",
    "nuts_region": "Wales",
    "type": "Hamlet"
  },
  {
    "id": 140,
    "name": "Aberporth",
    "county": "Dyfed",
    "country": "Wales",
    "grid_reference": "SN261512",
    "easting": 226131,
    "northing": 251298,
    "latitude": 52.13256,
    "longitude": -4.54172,
    "elevation": 34,
    "postcode_sector": "SA43 2",
    "local_government_area": "Ceredigion / Sir Ceredigion",
    "nuts_region": "Wales",
    "type": "Village"
  },
  {
    "id": 141,
    "name": "Aber Pwll",
    "county": "Gwynedd",
    "country": "Wales",
    "grid_reference": "SH533682",
    "easting": 253374,
    "northing": 368284,
    "latitude": 53.19137,
    "longitude": -4.19611,
    "elevation": 20,
    "postcode_sector": "LL56 4",
    "local_government_area": "Gwynedd",
    "nuts_region": "Wales",
    "type": "Suburban Area"
  },
  {
    "id": 142,
    "name": "Aber Rhaeadr",
    "county": "Powys",
    "country": "Wales",
    "grid_reference": "SJ130249",
    "easting": 313040,
    "northing": 324903,
    "latitude": 52.81463,
    "longitude": -3.29169,
    "elevation": 125,
    "postcode_sector": "SY10 0",
    "local_government_area": "Powys",
    "nuts_region": "Wales",
    "type": "Hamlet"
  },
  {
    "id": 143,
    "name": "Abersoch",
    "county": "Gwynedd",
    "country": "Wales",
    "grid_reference": "SH313281",
    "easting": 231358,
    "northing": 328183,
    "latitude": 52.82472,
    "longitude": -4.50436,
    "elevation": 10,
    "postcode_sector": "LL53 7",
    "local_government_area": "Gwynedd",
    "nuts_region": "Wales",
    "type": "Village"
  },
  {
    "id": 144,
    "name": "Abersychan",
    "county": "Gwent",
    "country": "Wales",
    "grid_reference": "SO264046",
    "easting": 326401,
    "northing": 204663,
    "latitude": 51.73582,
    "longitude": -3.0672,
    "elevation": 285,
    "postcode_sector": "NP4 7",
    "local_government_area": "Torfaen / Tor-faen",
    "nuts_region": "Wales",
    "type": "Town"
  },
  {
    "id": 145,
    "name": "Aber-Tafol",
    "county": "Gwynedd",
    "country": "Wales",
    "grid_reference": "SN649969",
    "easting": 264905,
    "northing": 296949,
    "latitude": 52.55357,
    "longitude": -3.99401,
    "elevation": 16,
    "postcode_sector": "LL35 0",
    "local_government_area": "Gwynedd",
    "nuts_region": "Wales",
    "type": "Hamlet"
  },
  {
    "id": 146,
    "name": "Aberthin",
    "county": "South Glamorgan",
    "country": "Wales",
    "grid_reference": "ST010753",
    "easting": 301022,
    "northing": 175300,
    "latitude": 51.46798,
    "longitude": -3.42632,
    "elevation": 46,
    "postcode_sector": "CF71 7",
    "local_government_area": "The Vale of Glamorgan / Bro Morgannwg",
    "nuts_region": "Wales",
    "type": "Village"
  },
  {
    "id": 147,
    "name": "Abertillery / Abertyleri",
    "county": "Gwent",
    "country": "Wales",
    "grid_reference": "SO217041",
    "easting": 321789,
    "northing": 204126,
    "latitude": 51.73037,
    "longitude": -3.13386,
    "elevation": 229,
    "postcode_sector": "NP13 1",
    "local_government_area": "Blaenau Gwent",
    "nuts_region": "Wales",
    "type": "Town"
  },
  {
    "id": 148,
    "name": "Abertridwr",
    "county": "Gwent",
    "country": "Wales",
    "grid_reference": "ST120893",
    "easting": 312034,
    "northing": 189353,
    "latitude": 51.59613,
    "longitude": -3.27134,
    "elevation": 141,
    "postcode_sector": "CF83 4",
    "local_government_area": "Caerphilly / Caerffili",
    "nuts_region": "Wales",
    "type": "Village"
  },
  {
    "id": 149,
    "name": "Abertridwr",
    "county": "Powys",
    "country": "Wales",
    "grid_reference": "SJ033191",
    "easting": 303373,
    "northing": 319125,
    "latitude": 52.76106,
    "longitude": -3.43337,
    "elevation": 238,
    "postcode_sector": "SY10 0",
    "local_government_area": "Powys",
    "nuts_region": "Wales",
    "type": "Village"
  },
  {
    "id": 150,
    "name": "Abertrinant",
    "county": "Gwynedd",
    "country": "Wales",
    "grid_reference": "SH635055",
    "easting": 263500,
    "northing": 305500,
    "latitude": 52.63004,
    "longitude": -4.01825,
    "elevation": 136,
    "postcode_sector": "LL36 9",
    "local_government_area": "Gwynedd",
    "nuts_region": "Wales",
    "type": "Locality"
  },
  {
    "id": 151,
    "name": "Abertysswg",
    "county": "Gwent",
    "country": "Wales",
    "grid_reference": "SO131055",
    "easting": 313148,
    "northing": 205594,
    "latitude": 51.74229,
    "longitude": -3.25931,
    "elevation": 257,
    "postcode_sector": "NP22 5",
    "local_government_area": "Caerphilly / Caerffili",
    "nuts_region": "Wales",
    "type": "Village"
  },
  {
    "id": 152,
    "name": "Aberuthven",
    "county": "Perth and Kinross",
    "country": "Scotland",
    "grid_reference": "NN980153",
    "easting": 298046,
    "northing": 715364,
    "latitude": 56.31966,
    "longitude": -3.64999,
    "elevation": 39,
    "postcode_sector": "PH3 1",
    "local_government_area": "Perth and Kinross",
    "nuts_region": "Scotland",
    "type": "Village"
  },
  {
    "id": 153,
    "name": "Aber Village",
    "county": "Powys",
    "country": "Wales",
    "grid_reference": "SO105215",
    "easting": 310500,
    "northing": 221500,
    "latitude": 51.88485,
    "longitude": -3.30176,
    "elevation": 160,
    "postcode_sector": "LD3 7",
    "local_government_area": "Powys",
    "nuts_region": "Wales",
    "type": "Locality"
  },
  {
    "id": 154,
    "name": "Aberwheeler / Aberchwiler",
    "county": "Clwyd",
    "country": "Wales",
    "grid_reference": "SJ096693",
    "easting": 309676,
    "northing": 369354,
    "latitude": 53.21354,
    "longitude": -3.35404,
    "elevation": 51,
    "postcode_sector": "LL16 4",
    "local_government_area": "Denbighshire / Sir Ddinbych",
    "nuts_region": "Wales",
    "type": "Village"
  },
  {
    "id": 155,
    "name": "Aberyscir",
    "county": "Powys",
    "country": "Wales",
    "grid_reference": "SN999298",
    "easting": 299942,
    "northing": 229892,
    "latitude": 51.95848,
    "longitude": -3.45755,
    "elevation": 157,
    "postcode_sector": "LD3 9",
    "local_government_area": "Powys",
    "nuts_region": "Wales",
    "type": "Hamlet"
  },
  {
    "id": 156,
    "name": "Aberystwyth",
    "county": "Dyfed",
    "country": "Wales",
    "grid_reference": "SN583817",
    "easting": 258382,
    "northing": 281709,
    "latitude": 52.41499,
    "longitude": -4.08367,
    "elevation": 11,
    "postcode_sector": "SY23 1",
    "local_government_area": "Ceredigion / Sir Ceredigion",
    "nuts_region": "Wales",
    "type": "Town"
  },
  {
    "id": 157,
    "name": "Abhainn Suidhe",
    "county": "Western Isles",
    "country": "Scotland",
    "grid_reference": "NB047079",
    "easting": 104771,
    "northing": 907917,
    "latitude": 57.96225,
    "longitude": -6.99368,
    "elevation": 8,
    "postcode_sector": "HS3 3",
    "local_government_area": "Na h-Eileanan an Iar",
    "nuts_region": "Scotland",
    "type": "Hamlet"
  },
  {
    "id": 158,
    "name": "Abingdon-on-Thames",
    "county": "Oxfordshire",
    "country": "England",
    "grid_reference": "SU498970",
    "easting": 449821,
    "northing": 197063,
    "latitude": 51.67014,
    "longitude": -1.28098,
    "elevation": 57,
    "postcode_sector": "OX14 3",
    "local_government_area": "Vale of White Horse District",
    "nuts_region": "South East",
    "type": "Town"
  },
  {
    "id": 159,
    "name": "Abinger Bottom",
    "county": "Surrey",
    "country": "England",
    "grid_reference": "TQ127447",
    "easting": 512759,
    "northing": 144761,
    "latitude": 51.19096,
    "longitude": -0.3878,
    "elevation": 200,
    "postcode_sector": "RH5 6",
    "local_government_area": "Mole Valley District",
    "nuts_region": "South East",
    "type": "Hamlet"
  },
  {
    "id": 160,
    "name": "Abinger Common",
    "county": "Surrey",
    "country": "England",
    "grid_reference": "TQ117456",
    "easting": 511759,
    "northing": 145693,
    "latitude": 51.19953,
    "longitude": -0.40182,
    "elevation": 169,
    "postcode_sector": "RH5 6",
    "local_government_area": "Mole Valley District",
    "nuts_region": "South East",
    "type": "Village"
  },
  {
    "id": 161,
    "name": "Abinger Hammer",
    "county": "Surrey",
    "country": "England",
    "grid_reference": "TQ096472",
    "easting": 509653,
    "northing": 147276,
    "latitude": 51.21417,
    "longitude": -0.43146,
    "elevation": 96,
    "postcode_sector": "RH5 6",
    "local_government_area": "Mole Valley District",
    "nuts_region": "South East",
    "type": "Village"
  },
  {
    "id": 162,
    "name": "Abington",
    "county": "Lanarkshire",
    "country": "Scotland",
    "grid_reference": "NS931233",
    "easting": 293192,
    "northing": 623331,
    "latitude": 55.49206,
    "longitude": -3.69204,
    "elevation": 251,
    "postcode_sector": "ML12 6",
    "local_government_area": "South Lanarkshire",
    "nuts_region": "Scotland",
    "type": "Village"
  },
  {
    "id": 163,
    "name": "Abington",
    "county": "Northamptonshire",
    "country": "England",
    "grid_reference": "SP780613",
    "easting": 478041,
    "northing": 261367,
    "latitude": 52.24496,
    "longitude": -0.8584,
    "elevation": 81,
    "postcode_sector": "NN3 3",
    "local_government_area": "Northampton District",
    "nuts_region": "East Midlands",
    "type": "Suburban Area"
  },
  {
    "id": 164,
    "name": "Abington Pigotts",
    "county": "Cambridgeshire",
    "country": "England",
    "grid_reference": "TL307444",
    "easting": 530720,
    "northing": 244481,
    "latitude": 52.08326,
    "longitude": -0.09371,
    "elevation": 28,
    "postcode_sector": "SG8 0",
    "local_government_area": "South Cambridgeshire District",
    "nuts_region": "Eastern",
    "type": "Village"
  },
  {
    "id": 165,
    "name": "Abington Vale",
    "county": "Northamptonshire",
    "country": "England",
    "grid_reference": "SP784609",
    "easting": 478496,
    "northing": 260970,
    "latitude": 52.24133,
    "longitude": -0.85183,
    "elevation": 66,
    "postcode_sector": "NN3 3",
    "local_government_area": "Northampton District",
    "nuts_region": "East Midlands",
    "type": "Suburban Area"
  },
  {
    "id": 166,
    "name": "Abingworth",
    "county": "West Sussex",
    "country": "England",
    "grid_reference": "TQ101167",
    "easting": 510177,
    "northing": 116725,
    "latitude": 50.93945,
    "longitude": -0.43327,
    "elevation": 45,
    "postcode_sector": "RH20 3",
    "local_government_area": "Horsham District",
    "nuts_region": "South East",
    "type": "Hamlet"
  },
  {
    "id": 167,
    "name": "Ab Kettleby",
    "county": "Leicestershire",
    "country": "England",
    "grid_reference": "SK723230",
    "easting": 472372,
    "northing": 323040,
    "latitude": 52.80007,
    "longitude": -0.92801,
    "elevation": 145,
    "postcode_sector": "LE14 3",
    "local_government_area": "Melton District",
    "nuts_region": "East Midlands",
    "type": "Village"
  },
  {
    "id": 168,
    "name": "Ab Lench",
    "county": "Worcestershire",
    "country": "England",
    "grid_reference": "SP012517",
    "easting": 401233,
    "northing": 251798,
    "latitude": 52.16445,
    "longitude": -1.98339,
    "elevation": 67,
    "postcode_sector": "WR11 4",
    "local_government_area": "Wychavon District",
    "nuts_region": "West Midlands",
    "type": "Hamlet"
  },
  {
    "id": 169,
    "name": "Ablington",
    "county": "Gloucestershire",
    "country": "England",
    "grid_reference": "SP104076",
    "easting": 410449,
    "northing": 207635,
    "latitude": 51.7673,
    "longitude": -1.84998,
    "elevation": 112,
    "postcode_sector": "GL7 5",
    "local_government_area": "Cotswold District",
    "nuts_region": "South West",
    "type": "Village"
  },
  {
    "id": 170,
    "name": "Ablington",
    "county": "Wiltshire",
    "country": "England",
    "grid_reference": "SU159469",
    "easting": 415958,
    "northing": 146989,
    "latitude": 51.22188,
    "longitude": -1.77288,
    "elevation": 81,
    "postcode_sector": "SP4 8",
    "local_government_area": "Wiltshire",
    "nuts_region": "South West",
    "type": "Hamlet"
  },
  {
    "id": 171,
    "name": "Abney",
    "county": "Derbyshire",
    "country": "England",
    "grid_reference": "SK197798",
    "easting": 419789,
    "northing": 379806,
    "latitude": 53.31482,
    "longitude": -1.70443,
    "elevation": 303,
    "postcode_sector": "S32 1",
    "local_government_area": "Derbyshire Dales District",
    "nuts_region": "East Midlands",
    "type": "Hamlet"
  },
  {
    "id": 172,
    "name": "Aboyne",
    "county": "Aberdeenshire",
    "country": "Scotland",
    "grid_reference": "NO520985",
    "easting": 352079,
    "northing": 798596,
    "latitude": 57.07588,
    "longitude": -2.79208,
    "elevation": 138,
    "postcode_sector": "AB34 5",
    "local_government_area": "Aberdeenshire",
    "nuts_region": "Scotland",
    "type": "Village"
  },
  {
    "id": 173,
    "name": "Abraham Heights",
    "county": "Lancashire",
    "country": "England",
    "grid_reference": "SD465612",
    "easting": 346552,
    "northing": 461225,
    "latitude": 54.04421,
    "longitude": -2.81772,
    "elevation": 22,
    "postcode_sector": "LA1 5",
    "local_government_area": "Lancaster District",
    "nuts_region": "North West",
    "type": "Suburban Area"
  },
  {
    "id": 174,
    "name": "Abram",
    "county": "Greater Manchester",
    "country": "England",
    "grid_reference": "SD607015",
    "easting": 360794,
    "northing": 401586,
    "latitude": 53.50949,
    "longitude": -2.59264,
    "elevation": 41,
    "postcode_sector": "WN2 5",
    "local_government_area": "Wigan District",
    "nuts_region": "North West",
    "type": "Village"
  },
  {
    "id": 175,
    "name": "Abriachan",
    "county": "Inverness",
    "country": "Scotland",
    "grid_reference": "NH555354",
    "easting": 255574,
    "northing": 835424,
    "latitude": 57.38625,
    "longitude": -4.40428,
    "elevation": 271,
    "postcode_sector": "IV3 8",
    "local_government_area": "Highland",
    "nuts_region": "Scotland",
    "type": "Locality"
  },
  {
    "id": 176,
    "name": "Abridge",
    "county": "Essex",
    "country": "England",
    "grid_reference": "TQ466968",
    "easting": 546624,
    "northing": 196823,
    "latitude": 51.65108,
    "longitude": 0.11802,
    "elevation": 25,
    "postcode_sector": "RM4 1",
    "local_government_area": "Epping Forest District",
    "nuts_region": "Eastern",
    "type": "Village"
  },
  {
    "id": 177,
    "name": "Abronhill",
    "county": "Dunbartonshire",
    "country": "Scotland",
    "grid_reference": "NS784755",
    "easting": 278442,
    "northing": 675599,
    "latitude": 55.95798,
    "longitude": -3.9486,
    "elevation": 111,
    "postcode_sector": "G67 3",
    "local_government_area": "North Lanarkshire",
    "nuts_region": "Scotland",
    "type": "Suburban Area"
  },
  {
    "id": 178,
    "name": "Abshot",
    "county": "Hampshire",
    "country": "England",
    "grid_reference": "SU517055",
    "easting": 451773,
    "northing": 105584,
    "latitude": 50.84747,
    "longitude": -1.26597,
    "elevation": 25,
    "postcode_sector": "PO14 4",
    "local_government_area": "Fareham District",
    "nuts_region": "South East",
    "type": "Hamlet"
  },
  {
    "id": 179,
    "name": "Abson",
    "county": "Gloucestershire",
    "country": "England",
    "grid_reference": "ST704748",
    "easting": 370470,
    "northing": 174869,
    "latitude": 51.47201,
    "longitude": -2.42655,
    "elevation": 94,
    "postcode_sector": "BS30 5",
    "local_government_area": "South Gloucestershire",
    "nuts_region": "South West",
    "type": "Hamlet"
  },
  {
    "id": 180,
    "name": "Abthorpe",
    "county": "Northamptonshire",
    "country": "England",
    "grid_reference": "SP649464",
    "easting": 464964,
    "northing": 246445,
    "latitude": 52.11252,
    "longitude": -1.05275,
    "elevation": 121,
    "postcode_sector": "NN12 8",
    "local_government_area": "South Northamptonshire District",
    "nuts_region": "East Midlands",
    "type": "Village"
  },
  {
    "id": 181,
    "name": "Abune-the-Hill",
    "county": "Orkney",
    "country": "Scotland",
    "grid_reference": "HY294283",
    "easting": 329408,
    "northing": 1028349,
    "latitude": 59.13606,
    "longitude": -3.23533,
    "elevation": 56,
    "postcode_sector": "KW17 2",
    "local_government_area": "Orkney Islands",
    "nuts_region": "Scotland",
    "type": "Locality"
  },
  {
    "id": 182,
    "name": "Abwell",
    "county": "Gloucestershire",
    "country": "England",
    "grid_reference": "SO683008",
    "easting": 368397,
    "northing": 200804,
    "latitude": 51.70508,
    "longitude": -2.45873,
    "elevation": 22,
    "postcode_sector": "GL13 9",
    "local_government_area": "Stroud District",
    "nuts_region": "South West",
    "type": "Hamlet"
  },
  {
    "id": 183,
    "name": "Aby",
    "county": "Lincolnshire",
    "country": "England",
    "grid_reference": "TF412783",
    "easting": 541214,
    "northing": 378361,
    "latitude": 53.28342,
    "longitude": 0.11672,
    "elevation": 15,
    "postcode_sector": "LN13 0",
    "local_government_area": "East Lindsey District",
    "nuts_region": "East Midlands",
    "type": "Village"
  },
  {
    "id": 184,
    "name": "Acairseid",
    "county": "Western Isles",
    "country": "Scotland",
    "grid_reference": "NF791101",
    "easting": 79197,
    "northing": 810142,
    "latitude": 57.07015,
    "longitude": -7.29541,
    "elevation": 9,
    "postcode_sector": "HS8 5",
    "local_government_area": "Na h-Eileanan an Iar",
    "nuts_region": "Scotland",
    "type": "Hamlet"
  },
  {
    "id": 185,
    "name": "Acarsaid",
    "county": "Inverness",
    "country": "Scotland",
    "grid_reference": "NM585725",
    "easting": 158500,
    "northing": 772500,
    "latitude": 56.78124,
    "longitude": -5.95504,
    "elevation": 4,
    "postcode_sector": "PH36 4",
    "local_government_area": "Highland",
    "nuts_region": "Scotland",
    "type": "Locality"
  },
  {
    "id": 186,
    "name": "Acaster Malbis",
    "county": "North Yorkshire",
    "country": "England",
    "grid_reference": "SE587454",
    "easting": 458778,
    "northing": 445447,
    "latitude": 53.90186,
    "longitude": -1.10691,
    "elevation": 10,
    "postcode_sector": "YO23 2",
    "local_government_area": "York",
    "nuts_region": "Yorkshire and the Humber",
    "type": "Village"
  },
  {
    "id": 187,
    "name": "Acaster Selby",
    "county": "North Yorkshire",
    "country": "England",
    "grid_reference": "SE573414",
    "easting": 457387,
    "northing": 441406,
    "latitude": 53.8657,
    "longitude": -1.12883,
    "elevation": 12,
    "postcode_sector": "YO23 7",
    "local_government_area": "Selby District",
    "nuts_region": "Yorkshire and the Humber",
    "type": "Locality"
  },
  {
    "id": 188,
    "name": "Accrington",
    "county": "Lancashire",
    "country": "England",
    "grid_reference": "SD760285",
    "easting": 376080,
    "northing": 428549,
    "latitude": 53.75275,
    "longitude": -2.36424,
    "elevation": 140,
    "postcode_sector": "BB5 2",
    "local_government_area": "Hyndburn District",
    "nuts_region": "North West",
    "type": "Town"
  },
  {
    "id": 189,
    "name": "Acha",
    "county": "Argyll and Bute",
    "country": "Scotland",
    "grid_reference": "NM186548",
    "easting": 118621,
    "northing": 754859,
    "latitude": 56.6009,
    "longitude": -6.58637,
    "elevation": 33,
    "postcode_sector": "PA78 6",
    "local_government_area": "Argyll and Bute",
    "nuts_region": "Scotland",
    "type": "Hamlet"
  },
  {
    "id": 190,
    "name": "Achadh a'Choirce / Achachork",
    "county": "Ross and Cromarty",
    "country": "Scotland",
    "grid_reference": "NG481458",
    "easting": 148103,
    "northing": 845818,
    "latitude": 57.43261,
    "longitude": -6.19851,
    "elevation": 93,
    "postcode_sector": "IV51 9",
    "local_government_area": "Highland",
    "nuts_region": "Scotland",
    "type": "Village"
  },
  {
    "id": 191,
    "name": "Achadh nan Darach",
    "county": "Inverness",
    "country": "Scotland",
    "grid_reference": "NN005555",
    "easting": 200500,
    "northing": 755500,
    "latitude": 56.64865,
    "longitude": -5.25567,
    "elevation": 119,
    "postcode_sector": "PA38 4",
    "local_government_area": "Highland",
    "nuts_region": "Scotland",
    "type": "Locality"
  },
  {
    "id": 192,
    "name": "Achahoish",
    "county": "Argyll and Bute",
    "country": "Scotland",
    "grid_reference": "NR779775",
    "easting": 177969,
    "northing": 677582,
    "latitude": 55.93985,
    "longitude": -5.55683,
    "elevation": 26,
    "postcode_sector": "PA31 8",
    "local_government_area": "Argyll and Bute",
    "nuts_region": "Scotland",
    "type": "Hamlet"
  },
  {
    "id": 193,
    "name": "Achaleven",
    "county": "Argyll and Bute",
    "country": "Scotland",
    "grid_reference": "NM915335",
    "easting": 191500,
    "northing": 733500,
    "latitude": 56.44743,
    "longitude": -5.38452,
    "elevation": 17,
    "postcode_sector": "PA37 1",
    "local_government_area": "Argyll and Bute",
    "nuts_region": "Scotland",
    "type": "Locality"
  },
  {
    "id": 194,
    "name": "Achalone",
    "county": "Caithness",
    "country": "Scotland",
    "grid_reference": "ND153569",
    "easting": 315306,
    "northing": 956984,
    "latitude": 58.49279,
    "longitude": -3.45459,
    "elevation": 67,
    "postcode_sector": "KW12 6",
    "local_government_area": "Highland",
    "nuts_region": "Scotland",
    "type": "Locality"
  },
  {
    "id": 195,
    "name": "Achamore / Acha Mòr",
    "county": "Western Isles",
    "country": "Scotland",
    "grid_reference": "NB318289",
    "easting": 131812,
    "northing": 928909,
    "latitude": 58.16731,
    "longitude": -6.56214,
    "elevation": 76,
    "postcode_sector": "HS2 9",
    "local_government_area": "Na h-Eileanan an Iar",
    "nuts_region": "Scotland",
    "type": "Village"
  },
  {
    "id": 196,
    "name": "Achanalt",
    "county": "Ross and Cromarty",
    "country": "Scotland",
    "grid_reference": "NH252615",
    "easting": 225226,
    "northing": 861576,
    "latitude": 57.61021,
    "longitude": -4.9272,
    "elevation": 121,
    "postcode_sector": "IV23 2",
    "local_government_area": "Highland",
    "nuts_region": "Scotland",
    "type": "Hamlet"
  },
  {
    "id": 197,
    "name": "Achandunie",
    "county": "Ross and Cromarty",
    "country": "Scotland",
    "grid_reference": "NH644721",
    "easting": 264452,
    "northing": 872126,
    "latitude": 57.71839,
    "longitude": -4.2772,
    "elevation": 128,
    "postcode_sector": "IV17 0",
    "local_government_area": "Highland",
    "nuts_region": "Scotland",
    "type": "Hamlet"
  },
  {
    "id": 198,
    "name": "Achanelid",
    "county": "Argyll and Bute",
    "country": "Scotland",
    "grid_reference": "NS005875",
    "easting": 200500,
    "northing": 687500,
    "latitude": 56.0387,
    "longitude": -5.20408,
    "elevation": 21,
    "postcode_sector": "PA22 3",
    "local_government_area": "Argyll and Bute",
    "nuts_region": "Scotland",
    "type": "Locality"
  },
  {
    "id": 199,
    "name": "Ach'an Tobhair",
    "county": "Inverness",
    "country": "Scotland",
    "grid_reference": "NN095725",
    "easting": 209500,
    "northing": 772500,
    "latitude": 56.8049,
    "longitude": -5.12175,
    "elevation": 100,
    "postcode_sector": "PH33 6",
    "local_government_area": "Highland",
    "nuts_region": "Scotland",
    "type": "Locality"
  },
  {
    "id": 200,
    "name": "Achany",
    "county": "Sutherland",
    "country": "Scotland",
    "grid_reference": "NC569015",
    "easting": 256922,
    "northing": 901538,
    "latitude": 57.98,
    "longitude": -4.42114,
    "elevation": 97,
    "postcode_sector": "IV27 4",
    "local_government_area": "Highland",
    "nuts_region": "Scotland",
    "type": "Hamlet"
  },
  {
    "id": 201,
    "name": "Achaphubuil",
    "county": "Inverness",
    "country": "Scotland",
    "grid_reference": "NN083759",
    "easting": 208322,
    "northing": 775946,
    "latitude": 56.83532,
    "longitude": -5.1436,
    "elevation": 37,
    "postcode_sector": "PH33 7",
    "local_government_area": "Highland",
    "nuts_region": "Scotland",
    "type": "Hamlet"
  },
  {
    "id": 202,
    "name": "Acharacle / Àth-Tharracail",
    "county": "Inverness",
    "country": "Scotland",
    "grid_reference": "NM675684",
    "easting": 167535,
    "northing": 768459,
    "latitude": 56.74961,
    "longitude": -5.80384,
    "elevation": 12,
    "postcode_sector": "PH36 4",
    "local_government_area": "Highland",
    "nuts_region": "Scotland",
    "type": "Village"
  },
  {
    "id": 203,
    "name": "Achargary",
    "county": "Sutherland",
    "country": "Scotland",
    "grid_reference": "NC725545",
    "easting": 272500,
    "northing": 954500,
    "latitude": 58.46008,
    "longitude": -4.187,
    "elevation": 28,
    "postcode_sector": "KW14 7",
    "local_government_area": "Highland",
    "nuts_region": "Scotland",
    "type": "Locality"
  },
  {
    "id": 204,
    "name": "Acharn",
    "county": "Perth and Kinross",
    "country": "Scotland",
    "grid_reference": "NN756438",
    "easting": 275637,
    "northing": 743857,
    "latitude": 56.57013,
    "longitude": -4.02563,
    "elevation": 118,
    "postcode_sector": "PH15 2",
    "local_government_area": "Perth and Kinross",
    "nuts_region": "Scotland",
    "type": "Village"
  },
  {
    "id": 205,
    "name": "Achastle",
    "county": "Caithness",
    "country": "Scotland",
    "grid_reference": "ND231346",
    "easting": 323194,
    "northing": 934610,
    "latitude": 58.29336,
    "longitude": -3.31183,
    "elevation": 51,
    "postcode_sector": "KW3 6",
    "local_government_area": "Highland",
    "nuts_region": "Scotland",
    "type": "Hamlet"
  },
  {
    "id": 206,
    "name": "Achavandra Muir",
    "county": "Sutherland",
    "country": "Scotland",
    "grid_reference": "NH770940",
    "easting": 277078,
    "northing": 894052,
    "latitude": 57.91884,
    "longitude": -4.07669,
    "elevation": 129,
    "postcode_sector": "IV25 3",
    "local_government_area": "Highland",
    "nuts_region": "Scotland",
    "type": "Locality"
  },
  {
    "id": 207,
    "name": "Achavanich",
    "county": "Caithness",
    "country": "Scotland",
    "grid_reference": "ND179426",
    "easting": 317967,
    "northing": 942653,
    "latitude": 58.36463,
    "longitude": -3.40382,
    "elevation": 149,
    "postcode_sector": "KW5 6",
    "local_government_area": "Highland",
    "nuts_region": "Scotland",
    "type": "Locality"
  },
  {
    "id": 208,
    "name": "Achavar",
    "county": "Caithness",
    "country": "Scotland",
    "grid_reference": "ND262370",
    "easting": 326280,
    "northing": 937066,
    "latitude": 58.31594,
    "longitude": -3.25999,
    "elevation": 84,
    "postcode_sector": "KW3 6",
    "local_government_area": "Highland",
    "nuts_region": "Scotland",
    "type": "Locality"
  },
  {
    "id": 209,
    "name": "Achddu",
    "county": "Dyfed",
    "country": "Wales",
    "grid_reference": "SN446015",
    "easting": 244648,
    "northing": 201507,
    "latitude": 51.69076,
    "longitude": -4.24895,
    "elevation": 29,
    "postcode_sector": "SA16 0",
    "local_government_area": "Carmarthenshire / Sir Gaerfyrddin",
    "nuts_region": "Wales",
    "type": "Suburban Area"
  },
  {
    "id": 210,
    "name": "Achduart / Achadh Dubhaird",
    "county": "Ross and Cromarty",
    "country": "Scotland",
    "grid_reference": "NC049037",
    "easting": 204958,
    "northing": 903761,
    "latitude": 57.98019,
    "longitude": -5.30025,
    "elevation": 31,
    "postcode_sector": "IV26 2",
    "local_government_area": "Highland",
    "nuts_region": "Scotland",
    "type": "Locality"
  },
  {
    "id": 211,
    "name": "Achduchil",
    "county": "Inverness",
    "country": "Scotland",
    "grid_reference": "NN593924",
    "easting": 259329,
    "northing": 792442,
    "latitude": 57.00164,
    "longitude": -4.31757,
    "elevation": 265,
    "postcode_sector": "PH20 1",
    "local_government_area": "Highland",
    "nuts_region": "Scotland",
    "type": "Hamlet"
  },
  {
    "id": 212,
    "name": "Acheninver",
    "county": "Ross and Cromarty",
    "country": "Scotland",
    "grid_reference": "NC042053",
    "easting": 204200,
    "northing": 905395,
    "latitude": 57.99451,
    "longitude": -5.3144,
    "elevation": 16,
    "postcode_sector": "IV26 2",
    "local_government_area": "Highland",
    "nuts_region": "Scotland",
    "type": "Locality"
  },
  {
    "id": 213,
    "name": "Achfary / Achadh Fairidh",
    "county": "Sutherland",
    "country": "Scotland",
    "grid_reference": "NC298387",
    "easting": 229849,
    "northing": 938735,
    "latitude": 58.30413,
    "longitude": -4.90541,
    "elevation": 52,
    "postcode_sector": "IV27 4",
    "local_government_area": "Highland",
    "nuts_region": "Scotland",
    "type": "Locality"
  },
  {
    "id": 214,
    "name": "Achfrish",
    "county": "Sutherland",
    "country": "Scotland",
    "grid_reference": "NC564117",
    "easting": 256492,
    "northing": 911796,
    "latitude": 58.07192,
    "longitude": -4.43466,
    "elevation": 116,
    "postcode_sector": "IV27 4",
    "local_government_area": "Highland",
    "nuts_region": "Scotland",
    "type": "Hamlet"
  },
  {
    "id": 215,
    "name": "Achgarve",
    "county": "Ross and Cromarty",
    "country": "Scotland",
    "grid_reference": "NG892935",
    "easting": 189281,
    "northing": 893560,
    "latitude": 57.8816,
    "longitude": -5.55575,
    "elevation": 12,
    "postcode_sector": "IV22 2",
    "local_government_area": "Highland",
    "nuts_region": "Scotland",
    "type": "Hamlet"
  },
  {
    "id": 216,
    "name": "Achiemore",
    "county": "Sutherland",
    "country": "Scotland",
    "grid_reference": "NC894577",
    "easting": 289493,
    "northing": 957736,
    "latitude": 58.49376,
    "longitude": -3.89751,
    "elevation": 29,
    "postcode_sector": "KW13 6",
    "local_government_area": "Highland",
    "nuts_region": "Scotland",
    "type": "Hamlet"
  },
  {
    "id": 217,
    "name": "A' Chill",
    "county": "Inverness",
    "country": "Scotland",
    "grid_reference": "NG272052",
    "easting": 127213,
    "northing": 805291,
    "latitude": 57.05765,
    "longitude": -6.50082,
    "elevation": 9,
    "postcode_sector": "PH44 4",
    "local_government_area": "Highland",
    "nuts_region": "Scotland",
    "type": "Hamlet"
  },
  {
    "id": 218,
    "name": "Achiltibuie",
    "county": "Ross and Cromarty",
    "country": "Scotland",
    "grid_reference": "NC028077",
    "easting": 202896,
    "northing": 907738,
    "latitude": 58.01495,
    "longitude": -5.33837,
    "elevation": 44,
    "postcode_sector": "IV26 2",
    "local_government_area": "Highland",
    "nuts_region": "Scotland",
    "type": "Village"
  },
  {
    "id": 219,
    "name": "Achilty",
    "county": "Ross and Cromarty",
    "country": "Scotland",
    "grid_reference": "NH441568",
    "easting": 244179,
    "northing": 856875,
    "latitude": 57.57497,
    "longitude": -4.60732,
    "elevation": 35,
    "postcode_sector": "IV14 9",
    "local_government_area": "Highland",
    "nuts_region": "Scotland",
    "type": "Hamlet"
  },
  {
    "id": 220,
    "name": "Achina",
    "county": "Sutherland",
    "country": "Scotland",
    "grid_reference": "NC707610",
    "easting": 270738,
    "northing": 961004,
    "latitude": 58.51793,
    "longitude": -4.22086,
    "elevation": 31,
    "postcode_sector": "KW14 7",
    "local_government_area": "Highland",
    "nuts_region": "Scotland",
    "type": "Hamlet"
  },
  {
    "id": 221,
    "name": "Achindown",
    "county": "Nairn",
    "country": "Scotland",
    "grid_reference": "NH839479",
    "easting": 283931,
    "northing": 847980,
    "latitude": 57.50709,
    "longitude": -3.93884,
    "elevation": 131,
    "postcode_sector": "IV12 5",
    "local_government_area": "Highland",
    "nuts_region": "Scotland",
    "type": "Locality"
  },
  {
    "id": 222,
    "name": "Achinduich",
    "county": "Sutherland",
    "country": "Scotland",
    "grid_reference": "NH580999",
    "easting": 258059,
    "northing": 899925,
    "latitude": 57.96589,
    "longitude": -4.40097,
    "elevation": 126,
    "postcode_sector": "IV27 4",
    "local_government_area": "Highland",
    "nuts_region": "Scotland",
    "type": "Hamlet"
  },
  {
    "id": 223,
    "name": "Achingills",
    "county": "Caithness",
    "country": "Scotland",
    "grid_reference": "ND153627",
    "easting": 315311,
    "northing": 962714,
    "latitude": 58.54424,
    "longitude": -3.45663,
    "elevation": 66,
    "postcode_sector": "KW12 6",
    "local_government_area": "Highland",
    "nuts_region": "Scotland",
    "type": "Locality"
  },
  {
    "id": 224,
    "name": "Achininver",
    "county": "Sutherland",
    "country": "Scotland",
    "grid_reference": "NC575645",
    "easting": 257500,
    "northing": 964500,
    "latitude": 58.54517,
    "longitude": -4.45009,
    "elevation": 118,
    "postcode_sector": "IV27 4",
    "local_government_area": "Highland",
    "nuts_region": "Scotland",
    "type": "Locality"
  },
  {
    "id": 225,
    "name": "Achintee",
    "county": "Ross and Cromarty",
    "country": "Scotland",
    "grid_reference": "NG941416",
    "easting": 194172,
    "northing": 841693,
    "latitude": 57.41884,
    "longitude": -5.42923,
    "elevation": 23,
    "postcode_sector": "IV54 8",
    "local_government_area": "Highland",
    "nuts_region": "Scotland",
    "type": "Hamlet"
  },
  {
    "id": 226,
    "name": "Achintraid / Achantraid",
    "county": "Ross and Cromarty",
    "country": "Scotland",
    "grid_reference": "NG839388",
    "easting": 183993,
    "northing": 838857,
    "latitude": 57.38869,
    "longitude": -5.59587,
    "elevation": 5,
    "postcode_sector": "IV54 8",
    "local_government_area": "Highland",
    "nuts_region": "Scotland",
    "type": "Village"
  },
  {
    "id": 227,
    "name": "Achleck",
    "county": "Argyll and Bute",
    "country": "Scotland",
    "grid_reference": "NM415455",
    "easting": 141500,
    "northing": 745500,
    "latitude": 56.53021,
    "longitude": -6.20544,
    "elevation": 87,
    "postcode_sector": "PA73 6",
    "local_government_area": "Argyll and Bute",
    "nuts_region": "Scotland",
    "type": "Locality"
  },
  {
    "id": 228,
    "name": "Achlonan",
    "county": "Argyll and Bute",
    "country": "Scotland",
    "grid_reference": "NN007314",
    "easting": 200745,
    "northing": 731462,
    "latitude": 56.43315,
    "longitude": -5.23324,
    "elevation": 7,
    "postcode_sector": "PA35 1",
    "local_government_area": "Argyll and Bute",
    "nuts_region": "Scotland",
    "type": "Suburban Area"
  },
  {
    "id": 229,
    "name": "Achlorachan",
    "county": "Ross and Cromarty",
    "country": "Scotland",
    "grid_reference": "NH328551",
    "easting": 232886,
    "northing": 855147,
    "latitude": 57.55544,
    "longitude": -4.79473,
    "elevation": 116,
    "postcode_sector": "IV6 7",
    "local_government_area": "Highland",
    "nuts_region": "Scotland",
    "type": "Hamlet"
  },
  {
    "id": 230,
    "name": "Achluachrach",
    "county": "Inverness",
    "country": "Scotland",
    "grid_reference": "NN300810",
    "easting": 230023,
    "northing": 781057,
    "latitude": 56.88963,
    "longitude": -4.7918,
    "elevation": 148,
    "postcode_sector": "PH31 4",
    "local_government_area": "Highland",
    "nuts_region": "Scotland",
    "type": "Hamlet"
  },
  {
    "id": 231,
    "name": "Achlyness",
    "county": "Sutherland",
    "country": "Scotland",
    "grid_reference": "NC248525",
    "easting": 224852,
    "northing": 952500,
    "latitude": 58.42563,
    "longitude": -5.00103,
    "elevation": 31,
    "postcode_sector": "IV27 4",
    "local_government_area": "Highland",
    "nuts_region": "Scotland",
    "type": "Hamlet"
  },
  {
    "id": 232,
    "name": "Achmelvich",
    "county": "Sutherland",
    "country": "Scotland",
    "grid_reference": "NC057247",
    "easting": 205791,
    "northing": 924705,
    "latitude": 58.16836,
    "longitude": -5.30351,
    "elevation": 8,
    "postcode_sector": "IV27 4",
    "local_government_area": "Highland",
    "nuts_region": "Scotland",
    "type": "Locality"
  },
  {
    "id": 233,
    "name": "Achmore",
    "county": "Ross and Cromarty",
    "country": "Scotland",
    "grid_reference": "NH023966",
    "easting": 202377,
    "northing": 896649,
    "latitude": 57.91528,
    "longitude": -5.33788,
    "elevation": 49,
    "postcode_sector": "IV23 2",
    "local_government_area": "Highland",
    "nuts_region": "Scotland",
    "type": "Locality"
  },
  {
    "id": 234,
    "name": "Achmore",
    "county": "Ross and Cromarty",
    "country": "Scotland",
    "grid_reference": "NG855335",
    "easting": 185587,
    "northing": 833527,
    "latitude": 57.34166,
    "longitude": -5.56476,
    "elevation": 26,
    "postcode_sector": "IV53 8",
    "local_government_area": "Highland",
    "nuts_region": "Scotland",
    "type": "Village"
  },
  {
    "id": 235,
    "name": "Achnabat",
    "county": "Sutherland",
    "country": "Scotland",
    "grid_reference": "NC662627",
    "easting": 266227,
    "northing": 962701,
    "latitude": 58.5318,
    "longitude": -4.29923,
    "elevation": 31,
    "postcode_sector": "KW14 7",
    "local_government_area": "Highland",
    "nuts_region": "Scotland",
    "type": "Suburban Area"
  },
  {
    "id": 236,
    "name": "Achnacarnin",
    "county": "Sutherland",
    "country": "Scotland",
    "grid_reference": "NC041318",
    "easting": 204156,
    "northing": 931838,
    "latitude": 58.23159,
    "longitude": -5.33725,
    "elevation": 68,
    "postcode_sector": "IV27 4",
    "local_government_area": "Highland",
    "nuts_region": "Scotland",
    "type": "Hamlet"
  },
  {
    "id": 237,
    "name": "Achnacarry",
    "county": "Inverness",
    "country": "Scotland",
    "grid_reference": "NN175879",
    "easting": 217526,
    "northing": 787906,
    "latitude": 56.94632,
    "longitude": -5.00157,
    "elevation": 49,
    "postcode_sector": "PH34 4",
    "local_government_area": "Highland",
    "nuts_region": "Scotland",
    "type": "Hamlet"
  },
  {
    "id": 238,
    "name": "Achnacloich",
    "county": "Ross and Cromarty",
    "country": "Scotland",
    "grid_reference": "NG587089",
    "easting": 158797,
    "northing": 808902,
    "latitude": 57.10762,
    "longitude": -5.98489,
    "elevation": 4,
    "postcode_sector": "IV46 8",
    "local_government_area": "Highland",
    "nuts_region": "Scotland",
    "type": "Locality"
  },
  {
    "id": 239,
    "name": "Achnaconeran",
    "county": "Inverness",
    "country": "Scotland",
    "grid_reference": "NH416179",
    "easting": 241636,
    "northing": 817929,
    "latitude": 57.22462,
    "longitude": -4.62467,
    "elevation": 233,
    "postcode_sector": "IV63 7",
    "local_government_area": "Highland",
    "nuts_region": "Scotland",
    "type": "Locality"
  },
  {
    "id": 240,
    "name": "Achnacroish",
    "county": "Argyll and Bute",
    "country": "Scotland",
    "grid_reference": "NM851409",
    "easting": 185132,
    "northing": 740975,
    "latitude": 56.5116,
    "longitude": -5.49378,
    "elevation": 11,
    "postcode_sector": "PA34 5",
    "local_government_area": "Argyll and Bute",
    "nuts_region": "Scotland",
    "type": "Hamlet"
  },
  {
    "id": 241,
    "name": "Achnagarron",
    "county": "Ross and Cromarty",
    "country": "Scotland",
    "grid_reference": "NH683702",
    "easting": 268345,
    "northing": 870245,
    "latitude": 57.70267,
    "longitude": -4.21087,
    "elevation": 23,
    "postcode_sector": "IV18 0",
    "local_government_area": "Highland",
    "nuts_region": "Scotland",
    "type": "Hamlet"
  },
  {
    "id": 242,
    "name": "Achnagoul",
    "county": "Argyll and Bute",
    "country": "Scotland",
    "grid_reference": "NN059054",
    "easting": 205929,
    "northing": 705430,
    "latitude": 56.20178,
    "longitude": -5.13012,
    "elevation": 86,
    "postcode_sector": "PA32 8",
    "local_government_area": "Argyll and Bute",
    "nuts_region": "Scotland",
    "type": "Locality"
  },
  {
    "id": 243,
    "name": "Achnaha",
    "county": "Inverness",
    "country": "Scotland",
    "grid_reference": "NM462682",
    "easting": 146294,
    "northing": 768255,
    "latitude": 56.73672,
    "longitude": -6.15007,
    "elevation": 30,
    "postcode_sector": "PH36 4",
    "local_government_area": "Highland",
    "nuts_region": "Scotland",
    "type": "Hamlet"
  },
  {
    "id": 244,
    "name": "Achnahanat",
    "county": "Sutherland",
    "country": "Scotland",
    "grid_reference": "NH517981",
    "easting": 251758,
    "northing": 898129,
    "latitude": 57.94772,
    "longitude": -4.50624,
    "elevation": 85,
    "postcode_sector": "IV27 4",
    "local_government_area": "Highland",
    "nuts_region": "Scotland",
    "type": "Locality"
  },
  {
    "id": 245,
    "name": "Achnahannet",
    "county": "Inverness",
    "country": "Scotland",
    "grid_reference": "NH975275",
    "easting": 297500,
    "northing": 827500,
    "latitude": 57.32648,
    "longitude": -3.70393,
    "elevation": 252,
    "postcode_sector": "PH26 3",
    "local_government_area": "Highland",
    "nuts_region": "Scotland",
    "type": "Locality"
  },
  {
    "id": 246,
    "name": "Achnahard",
    "county": "Argyll and Bute",
    "country": "Scotland",
    "grid_reference": "NM395235",
    "easting": 139500,
    "northing": 723500,
    "latitude": 56.332,
    "longitude": -6.21596,
    "elevation": 8,
    "postcode_sector": "PA67 6",
    "local_government_area": "Argyll and Bute",
    "nuts_region": "Scotland",
    "type": "Locality"
  },
  {
    "id": 247,
    "name": "Achnahuaigh",
    "county": "Sutherland",
    "country": "Scotland",
    "grid_reference": "NC579641",
    "easting": 257997,
    "northing": 964190,
    "latitude": 58.54255,
    "longitude": -4.44136,
    "elevation": 69,
    "postcode_sector": "IV27 4",
    "local_government_area": "Highland",
    "nuts_region": "Scotland",
    "type": "Suburban Area"
  },
  {
    "id": 248,
    "name": "Achnairn",
    "county": "Sutherland",
    "country": "Scotland",
    "grid_reference": "NC552126",
    "easting": 255257,
    "northing": 912672,
    "latitude": 58.07938,
    "longitude": -4.45612,
    "elevation": 126,
    "postcode_sector": "IV27 4",
    "local_government_area": "Highland",
    "nuts_region": "Scotland",
    "type": "Hamlet"
  },
  {
    "id": 249,
    "name": "Achnamara",
    "county": "Argyll and Bute",
    "country": "Scotland",
    "grid_reference": "NR778871",
    "easting": 177887,
    "northing": 687131,
    "latitude": 56.02544,
    "longitude": -5.56602,
    "elevation": 5,
    "postcode_sector": "PA31 8",
    "local_government_area": "Argyll and Bute",
    "nuts_region": "Scotland",
    "type": "Village"
  },
  {
    "id": 250,
    "name": "Achnandarach",
    "county": "Ross and Cromarty",
    "country": "Scotland",
    "grid_reference": "NG805311",
    "easting": 180512,
    "northing": 831109,
    "latitude": 57.31757,
    "longitude": -5.64676,
    "elevation": 128,
    "postcode_sector": "IV52 8",
    "local_government_area": "Highland",
    "nuts_region": "Scotland",
    "type": "Hamlet"
  },
  {
    "id": 251,
    "name": "Achnasheen / Achadh na Sine",
    "county": "Ross and Cromarty",
    "country": "Scotland",
    "grid_reference": "NH158582",
    "easting": 215838,
    "northing": 858253,
    "latitude": 57.57667,
    "longitude": -5.08156,
    "elevation": 160,
    "postcode_sector": "IV22 2",
    "local_government_area": "Highland",
    "nuts_region": "Scotland",
    "type": "Locality"
  },
  {
    "id": 252,
    "name": "Achnashellach / Achadh na Seileach",
    "county": "Ross and Cromarty",
    "country": "Scotland",
    "grid_reference": "NH002481",
    "easting": 200215,
    "northing": 848183,
    "latitude": 57.47974,
    "longitude": -5.33409,
    "elevation": 50,
    "postcode_sector": "IV54 8",
    "local_government_area": "Highland",
    "nuts_region": "Scotland",
    "type": "Hamlet"
  },
  {
    "id": 253,
    "name": "Achnavast",
    "county": "Caithness",
    "country": "Scotland",
    "grid_reference": "ND079643",
    "easting": 307951,
    "northing": 964317,
    "latitude": 58.55713,
    "longitude": -3.58367,
    "elevation": 51,
    "postcode_sector": "KW14 7",
    "local_government_area": "Highland",
    "nuts_region": "Scotland",
    "type": "Hamlet"
  },